"Date Last Researched","Country/Area","Project Name","Phase Name","Project Name in Local Language / Script","Other Name(s)","Capacity (MW)","Capacity Rating","Technology Type","Status","Start year","Retired year","Operator","Operator Name in Local Language / Script","Owner","Owner Name in Local Language / Script","Hydrogen","Latitude","Longitude","Location accuracy","City","Local area (taluk, county)","Major area (prefecture, district)","State/Province","Subregion","Region","GEM location ID","GEM phase ID","Other IDs (location)","Other IDs (unit/phase)","Wiki URL"
"2024/03/20","Spain","Abarloar solar farm","--","Planta fotovoltaica Abarloar Solar",NA,82.5,"MWac","PV","pre-construction",NA,NA,NA,NA,"Abarloar Solar SL",NA,NA,"40.4254","-3.1831","approximate","Pezuela de las Torres",NA,"Madrid","Comunidad de Madrid","Southern Europe","Europe","L100000824286","G100000827393",NA,NA,"https://www.gem.wiki/Abarloar_solar_farm"
"2024/01/26","Spain","Abedul 2 New Energy solar farm","--","Instalación fotovoltaica Abedul II",NA,51.6,"MWac","PV","pre-construction",NA,NA,"Progressum Energy Developments",NA,"Progressum Energy Developments",NA,NA,"41.6142","-0.7043","approximate",NA,"Zaragoza",NA,"Aragón","Southern Europe","Europe","L100000824287","G100000827394",NA,NA,"https://www.gem.wiki/Abedul_2_New_Energy_solar_farm"
"2021/08/09","Spain","Abertura solar farm","1",NA,NA,23,"unknown","PV","operating",2008,NA,"Iberdrola",NA,"LongSol",NA,NA,"39.2226","-5.7853","exact","Abertura","Miajadas","Cáceres","Extremadura","Southern Europe","Europe","L100000805860","G100000806742",NA,"WKSL: 1072895","https://www.gem.wiki/Abertura_solar_farm"
"2024/02/27","Spain","Abeto New Energy solar farm","--","Planta solar fotovoltaica Abeto New Energy",NA,75,"MWac","PV","pre-construction",NA,NA,NA,NA,"Abeto New Energy SLU",NA,NA,"42.4927","-1.6669","approximate","Olite",NA,"Navarra","Aragón","Southern Europe","Europe","L100001003309","G100001003790",NA,NA,"https://www.gem.wiki/Abeto_New_Energy_solar_farm"
"2024/02/27","Spain","Abeto solar farm","--","Planta fotovoltaica Abeto Solar",NA,50,"MWac","PV","pre-construction",NA,NA,"Abeto Solar",NA,"Total Solar Ibérica",NA,NA,"40.3974","-3.3104","approximate","Pozuelo del Rey",NA,"Madrid","Área metropolitana de Madrid","Southern Europe","Europe","L100000824288","G100000827395",NA,NA,"https://www.gem.wiki/Abeto_solar_farm"
"2024/01/30","Spain","Acampo Estrén solar farm","--","Planta Fotovoltaica Acampo Estrén",NA,24.9,"MWp/dc","PV","pre-construction",NA,NA,NA,NA,"Parque Fotovoltaico Estrén SL",NA,NA,"41.5468","-0.8604","approximate","Zaragoza",NA,"Zaragoza","Aragón","Southern Europe","Europe","L100001000586","G100001000897",NA,NA,"https://www.gem.wiki/Acampo_Estrén_solar_farm"
"2024/01/30","Spain","Acampo de Orús solar farm","--",NA,NA,258.9,"MWp/dc","PV","shelved - inferred 2 y",NA,NA,"Ener Delta",NA,NA,NA,NA,"41.3473","-0.7809","approximate",NA,NA,NA,"Aragón","Southern Europe","Europe","L100000824290","G100000827397",NA,NA,"https://www.gem.wiki/Acampo_de_Orús_solar_farm"
"2024/04/15","Spain","Acebuche solar farm","--",NA,NA,50,"MWp/dc","PV","pre-construction",NA,NA,NA,NA,"Hanwha Energy Corp","한화에너지",NA,"38.6590","-4.2902","approximate","Brazatortas",NA,"Ciudad Real","Castilla-La Mancha","Southern Europe","Europe","L100001005471","G100001006511",NA,NA,"https://www.gem.wiki/Acebuche_solar_farm"
"2024/03/15","Spain","Acequia solar farm","--","Parque solar fotovoltaico Acequia Solar",NA,42.5,"MWac","PV","pre-construction",NA,NA,NA,NA,"Acequia Solar SL",NA,NA,"40.6587","-3.1626","approximate","Guadalajara",NA,"Guadalajara","Castilla-La Mancha","Southern Europe","Europe","L100000824291","G100000827398",NA,NA,"https://www.gem.wiki/Acequia_solar_farm"
"2024/04/19","Spain","Adaja 1 solar farm","--",NA,NA,51.7,"unknown","PV","pre-construction",NA,NA,NA,NA,"Rin Power",NA,NA,"41.8676","-3.5387","approximate",NA,NA,NA,"Castilla y León","Southern Europe","Europe","L100001005629","G100001006749",NA,NA,"https://www.gem.wiki/Adaja_1_solar_farm"
"2024/02/09","Spain","Adeje solar farm","--","Parc solar Adeje Solar",NA,50,"MWp/dc","PV","pre-construction",NA,NA,NA,NA,"Adeje Solar SL",NA,NA,"41.4485","0.6647","approximate","Granyena de les Garrigues","Garrigues","Lleida","Cataluña","Southern Europe","Europe","L100001000846","G100001001203",NA,NA,"https://www.gem.wiki/Adeje_solar_farm"
"2024/04/03","Spain","Adelfa solar farm","--","Planta solar fotovoltaica Adelfa Solar",NA,50,"MWp/dc","PV","pre-construction",NA,NA,"Adelfa Solar",NA,"Ignis Energía SL",NA,NA,"42.1185","-4.6629","approximate","Becerril de Campos",NA,"Palencia","Castilla y León","Southern Europe","Europe","L100001004644","G100001005448",NA,NA,"https://www.gem.wiki/Adelfa_solar_farm"
"2024/04/02","Spain","Adolfo Suárez Madrid-Barajas Airport solar farm","2",NA,NA,120,"unknown","PV","pre-construction",2026,NA,NA,NA,"Aeropuertos Españoles y Navegación Aérea (AENA)",NA,NA,"40.4984","-3.5676","exact","Madrid","Área metropolitana de Madrid y Corredor del Henares",NA,NA,"Southern Europe","Europe","L100000824292","G100000827400",NA,NA,"https://www.gem.wiki/Adolfo_Suárez_Madrid-Barajas_Airport_solar_farm"
"2024/04/19","Spain","Aena Aeropuerto Madrid Barajas solar farm","--",NA,NA,120,"MWac","PV","pre-construction",NA,NA,NA,NA,"Aeropuertos Españoles y Navegación Aérea (AENA)",NA,NA,"40.5223","-3.6280","approximate","Alcobendas",NA,NA,"Madrid","Southern Europe","Europe","L100001005600","G100001006707",NA,NA,"https://www.gem.wiki/Aena_Aeropuerto_Madrid_Barajas_solar_farm"
"2024/04/02","Spain","Aeropuerto Sevilla solar farm","--",NA,NA,50,"MWp/dc","PV","pre-construction",NA,NA,"Matrix Renewables",NA,"Matrix Renewables",NA,NA,"37.4201","-5.8933","approximate",NA,NA,"Sevilla","Andalucía","Southern Europe","Europe","L100000824293","G100000827401",NA,NA,"https://www.gem.wiki/Aeropuerto_Sevilla_solar_farm"
"2024/04/04","Spain","Agenor solar farm","--",NA,NA,50,"unknown","PV","operating",2024,NA,NA,NA,"NextEnergy Solar Fund",NA,NA,"36.5207","-6.2794","approximate","Cádiz","Bay of Cádiz","Cádiz","Andalusia","Southern Europe","Europe","L100000824294","G100000827402",NA,NA,"https://www.gem.wiki/Agenor_solar_farm"
"2024/04/19","Spain","Agr Maria solar farm","Alpha",NA,NA,165.3,"unknown","PV","pre-construction",NA,NA,"Solaria",NA,NA,NA,NA,"41.7693","-4.2198","approximate",NA,NA,NA,"Castilla y León","Southern Europe","Europe","L100001005595","G100001006697",NA,NA,"https://www.gem.wiki/Agr_Maria_solar_farm"
"2024/04/19","Spain","Agr Maria solar farm","Beta",NA,NA,140.1,"unknown","PV","pre-construction",NA,NA,"Solaria",NA,NA,NA,NA,"41.7693","-4.2198","approximate",NA,NA,NA,"Castilla y León","Southern Europe","Europe","L100001005595","G100001006698",NA,NA,"https://www.gem.wiki/Agr_Maria_solar_farm"
"2024/04/19","Spain","Agr Maria solar farm","Delta",NA,NA,228.6,"unknown","PV","pre-construction",NA,NA,"Solaria",NA,NA,NA,NA,"41.7693","-4.2198","approximate",NA,NA,NA,"Castilla y León","Southern Europe","Europe","L100001005595","G100001006700",NA,NA,"https://www.gem.wiki/Agr_Maria_solar_farm"
"2024/04/19","Spain","Agr Maria solar farm","Gamma",NA,NA,140.1,"unknown","PV","pre-construction",NA,NA,"Solaria",NA,NA,NA,NA,"41.7693","-4.2198","approximate",NA,NA,NA,"Castilla y León","Southern Europe","Europe","L100001005595","G100001006699",NA,NA,"https://www.gem.wiki/Agr_Maria_solar_farm"
"2023/01/18","Spain","Agripa solar farm","--",NA,NA,45.3,"unknown","PV","operating",2022,NA,NA,NA,"Endesa SA",NA,NA,"39.2774","-6.2734","approximate",NA,"Sierra de Montánchez","Cáceres","Extremadura","Southern Europe","Europe","L100000824295","G100000827403",NA,NA,"https://www.gem.wiki/Agripa_solar_farm"
"2024/10/04","Spain","Aguasvivas solar farm","--",NA,NA,55,"unknown","PV","operating",2024,NA,"Bruc Management",NA,"Q Energy",NA,NA,"41.1471","-0.8656","approximate",NA,NA,"Badajoz","Zaragosa","Southern Europe","Europe","L100001020808","G100001023756",NA,NA,"https://www.gem.wiki/Aguasvivas_solar_farm"
"2024/03/21","Spain","Aguzadera solar farm","--",NA,NA,368.4,"MWp/dc","PV","pre-construction",NA,NA,NA,NA,"Ric Sun Energy",NA,NA,"37.6087","-4.6016","approximate",NA,NA,NA,"Andalucía","Southern Europe","Europe","L100000824296","G100000827404",NA,NA,"https://www.gem.wiki/Aguzadera_solar_farm"
"2024/02/23","Spain","Ahigal-Cerezo solar farm","--","Planta solar fotovoltaica Ahigal-Cerezo","Complejo Zajuril",137,"unknown","PV","announced",NA,NA,"Proyecto Fotovoltaico Ahigal-Cerezo",NA,"Statkraft AS",NA,NA,"40.2079","-6.2002","approximate","Ahigal",NA,"Cáceres","Extremadura","Southern Europe","Europe","L100001003180","G100001003646",NA,NA,"https://www.gem.wiki/Ahigal-Cerezo_solar_farm"
"2023/01/11","Spain","Alarcos solar farm","1",NA,NA,50,"MWp/dc","PV","operating",2020,NA,"RWE",NA,"RWE AG",NA,NA,"38.9360","-3.9897","approximate","Poblete",NA,NA,"Ciudad Real","Southern Europe","Europe","L100000805945","G100000806845","WKSL: WKSL: 73241","PRETOR: RE-113118","https://www.gem.wiki/Alarcos_solar_farm"
"2023/01/18","Spain","Alaudae solar farm","--",NA,NA,45.3,"unknown","PV","operating",2022,NA,NA,NA,"Endesa SA",NA,NA,"39.2774","-6.2734","approximate",NA,"Sierra de Montánchez","Cáceres","Extremadura","Southern Europe","Europe","L100000824297","G100000827405",NA,NA,"https://www.gem.wiki/Alaudae_solar_farm"
"2024/04/03","Spain","Alba (Spain) solar farm","--","Planta solar fotovoltaica Alba 1",NA,49.9,"MWp/dc","PV","pre-construction",NA,NA,NA,NA,"Lured Potencia SL",NA,NA,"42.5977","-5.4900","approximate","Valdefresno",NA,"León","Castilla y León","Southern Europe","Europe","L100001004669","G100001005479",NA,NA,"https://www.gem.wiki/Alba_(Spain)_solar_farm"
"2024/03/26","Spain","Albacete solar farm","--",NA,NA,150.6,"MWp/dc","PV","pre-construction",NA,NA,"Greenpower Renovables",NA,NA,NA,NA,"39.6111","-2.7904","approximate",NA,NA,NA,"Castilla-La Mancha","Southern Europe","Europe","L100000824298","G100000827406",NA,NA,"https://www.gem.wiki/Albacete_solar_farm"
"2024/03/12","Spain","Albares solar farm","--","Parque solar fotovoltaico Albares",NA,90.5,"MWac","PV","pre-construction",NA,NA,"Green Capital Power",NA,"Capital Energy",NA,NA,"40.2376","-3.7121","approximate","Pinto",NA,"Madrid","Comunidad Autónoma de Madrid","Southern Europe","Europe","L100000824299","G100000827407",NA,NA,"https://www.gem.wiki/Albares_solar_farm"
"2023/01/18","Spain","Albeniz solar farm","--",NA,NA,50,"unknown","PV","operating",2022,NA,NA,NA,"Aquila European Renewables Income Fund (AERIF)",NA,NA,"36.8476","-2.4499","approximate","Almeria",NA,"Almeria","Andalusia","Southern Europe","Europe","L100000824300","G100000827408","WKSL: WKSL: 80599",NA,"https://www.gem.wiki/Albeniz_solar_farm"
"2024/04/12","Spain","Alberche 1 solar farm","--",NA,NA,49.5,"MWp/dc","PV","pre-construction",NA,NA,NA,NA,"Forestalia SL",NA,NA,"39.9127","-4.6778","approximate","La Pueblanueva",NA,"Toledo","Castilla-La Mancha","Southern Europe","Europe","L100001005360","G100001006388",NA,NA,"https://www.gem.wiki/Alberche_1_solar_farm"
"2024/04/19","Spain","Albornez solar farm","--",NA,NA,82.5,"MWac","PV","pre-construction",NA,NA,NA,NA,"ib vogt gmbH",NA,NA,"38.0218","-4.3840","approximate","Montoro",NA,NA,"Andalucía","Southern Europe","Europe","L100001005615","G100001006731",NA,NA,"https://www.gem.wiki/Albornez_solar_farm"
"2024/03/26","Spain","Alcal 1 solar farm","--","Planta solar fotovoltaica Alcal I",NA,57,"MWp/dc","PV","pre-construction",NA,NA,NA,NA,"Isis Sun Power SL",NA,NA,"40.8396","-3.3705","approximate","Casa de Uceda",NA,"Guadalajara","Castilla-La Mancha","Southern Europe","Europe","L100000824301","G100000827409",NA,NA,"https://www.gem.wiki/Alcal_1_solar_farm"
"2021/08/09","Spain","Alcalá De Guadaira Solar Park","1",NA,"Amazon Sevilla",149,"unknown","PV","operating",2020,NA,"Amazon",NA,"Amazon",NA,NA,"37.3563","-5.8171","approximate","Alcalá de Guadaira",NA,NA,"Sevilla","Southern Europe","Europe","L100000805699","G100000806555",NA,NA,"https://www.gem.wiki/Alcalá_De_Guadaira_Solar_Park"
"2024/10/04","Spain","Alcalá de los Gazules solar farm","Alamak","Planta solar fotovoltaica Alya Solar, Planta solar fotovoltaica Alcalá de los Gazules","Alya Solar, Alamak Solar",49.9,"MWp/dc","PV","operating",2024,NA,"Alya Solar",NA,"Euder Energy SL",NA,NA,"36.4634","-5.7266","approximate","Alcalá de los Gazules",NA,"Cádiz","Andalucía","Southern Europe","Europe","L100000824302","G100000827410",NA,NA,"https://www.gem.wiki/Alcalá_de_los_Gazules_solar_farm"
"2024/10/04","Spain","Alcalá de los Gazules solar farm","Alya","Planta solar fotovoltaica Alamak Solar, Planta solar fotovoltaica Alcalá de los Gazules","Alya Solar, Alamak Solar",24,"MWp/dc","PV","operating",2024,NA,"Alamak Solar",NA,"Euder Energy SL",NA,NA,"36.4634","-5.7266","approximate","Alcalá de los Gazules",NA,"Cádiz","Andalucía","Southern Europe","Europe","L100000824302","G100000827411",NA,"WKSL: WKSL: 83978","https://www.gem.wiki/Alcalá_de_los_Gazules_solar_farm"
"2024/04/26","Spain","Alcaniz solar farm","--",NA,NA,50,"unknown","PV","shelved",NA,NA,NA,NA,NA,NA,NA,"42.0200","-0.2749","approximate",NA,NA,NA,"Aragon","Southern Europe","Europe","L100001007667","G100001008893","WKSL: WKSL: 77434",NA,"https://www.gem.wiki/Alcaniz_solar_farm"
"2024/03/15","Spain","Alcarria solar farm","--","Planta solar fotovoltaica Alcarria",NA,40,"unknown","PV","pre-construction",NA,NA,NA,NA,"Iberdrola SA",NA,NA,"39.6196","-2.7904","approximate",NA,NA,"Cuenca","Castile-La Mancha","Southern Europe","Europe","L100000824304","G100000827413",NA,NA,"https://www.gem.wiki/Alcarria_solar_farm"
"2023/01/17","Spain","Alcazar solar farm","1",NA,"Planta Solar Alcazar",44.9,"MWp/dc","PV","operating",2019,NA,"Energías Ambientales de Soria",NA,"Galp Energia SGPS SA ; Actividades de Construcción y Servicios SA",NA,NA,"39.3882","-3.2117","approximate","Alcázar de San Juan",NA,NA,NA,"Southern Europe","Europe","L100000824305","G100000827414",NA,"PRETOR: RE-112894","https://www.gem.wiki/Alcazar_solar_farm"
"2023/01/17","Spain","Alcazar solar farm","2",NA,"Planta Solar Alcazar",44.9,"MWp/dc","PV","operating",2019,NA,"Energías Ambientales de Soria",NA,"Galp Energia SGPS SA ; Actividades de Construcción y Servicios SA",NA,NA,"39.3882","-3.2117","approximate","Alcázar de San Juan",NA,NA,NA,"Southern Europe","Europe","L100000824305","G100000827415",NA,"PRETOR: RE-112895","https://www.gem.wiki/Alcazar_solar_farm"
"2023/01/04","Spain","Alcores Calaspasol solar farm","--",NA,NA,39.9,"MWp/dc","PV","operating",NA,NA,NA,NA,NA,NA,NA,"37.4706","-5.6470","approximate","Carmona",NA,NA,NA,"Southern Europe","Europe","L100000824307","G100000827417",NA,"PRETOR: RE-112994","https://www.gem.wiki/Alcores_Calaspasol_solar_farm"
"2021/08/09","Spain","Alcores solar farm","1",NA,NA,40,"MWp/dc","PV","operating",2019,NA,"X-Elio",NA,"X-Elio",NA,NA,"37.4360","-5.7930","exact",NA,NA,NA,"Sevilla","Southern Europe","Europe","L100000806037","G100000806950","WKSL: WKSL: 82459","WKSL: WKSL: 82459","https://www.gem.wiki/Alcores_solar_farm"
"2024/04/03","Spain","Alcornoque solar farm","--","Planta solar fotovoltaica Alcornoque Solar",NA,50,"MWp/dc","PV","pre-construction",NA,NA,"Alcornoque Solar",NA,"Ignis Energía SL",NA,NA,"42.1237","-4.6615","approximate","Becerril de Campos",NA,"Palencia","Castilla y León","Southern Europe","Europe","L100001004639","G100001005444",NA,NA,"https://www.gem.wiki/Alcornoque_solar_farm"
"2024/03/27","Spain","Alcántara solar farm","--",NA,NA,100,"MWp/dc","PV","pre-construction",NA,NA,"Benbros Solar",NA,NA,NA,NA,"38.7910","-5.6362","approximate",NA,NA,NA,"Extremadura","Southern Europe","Europe","L100000824303","G100000827412",NA,NA,"https://www.gem.wiki/Alcántara_solar_farm"
"2024/02/21","Spain","Aldea de San Miguel solar farm","--","Planta solar fotovoltaica Aldea San Miguel",NA,53.2,"MWac","PV","pre-construction",NA,NA,"New Universeline System",NA,"BayWa R.E. AG",NA,NA,"41.4640","-4.6274","approximate","Aldea de San Miguel",NA,"Valladolid","Castile and León","Southern Europe","Europe","L100000824308","G100000827418",NA,NA,"https://www.gem.wiki/Aldea_de_San_Miguel_solar_farm"
"2024/04/02","Spain","Aldehuela solar farm","--",NA,NA,130,"MWp/dc","PV","shelved",NA,NA,"Dos Grados Capital",NA,NA,NA,NA,"40.3051","-3.7307","approximate","Getafe",NA,NA,"Comunidad de Madrid","Southern Europe","Europe","L100000824309","G100000827419",NA,NA,"https://www.gem.wiki/Aldehuela_solar_farm"
"2024/01/26","Spain","Alfajarín solar farm","--","Instalación fotovoltaica Alfajarín Solar",NA,76.8,"MWac","PV","pre-construction",NA,NA,"Enel Green Power",NA,"Enel Green Power SpA",NA,NA,"41.6140","-0.7038","approximate","Alfajarín",NA,"Zaragoza","Aragón","Southern Europe","Europe","L100000824311","G100000827421",NA,NA,"https://www.gem.wiki/Alfajarín_solar_farm"
"2024/03/18","Spain","Alfamén solar farm","--","Planta solar fotovoltaica Alfamén Energía",NA,200,"unknown","PV","pre-construction",NA,NA,NA,NA,"Alfamen Energía SL",NA,NA,"41.4471","-1.2366","approximate","Alfamén",NA,"Zaragoza","Aragón","Southern Europe","Europe","L100000824312","G100000827422",NA,NA,"https://www.gem.wiki/Alfamén_solar_farm"
"2023/01/11","Spain","Algibicos solar farm","1",NA,"Algibicos PV",49,"MWp/dc","PV","operating",2020,NA,"EKZ Renewables",NA,"Elektrizitätswerke des Kantons Zürich",NA,NA,"37.8470","-1.1180","exact","Baños y Mendigo",NA,NA,"Murcia","Southern Europe","Europe","L100000805769","G100000806638",NA,"PRETOR: RE-113206,WKSL: WKSL: 84959","https://www.gem.wiki/Algibicos_solar_farm"
"2023/01/12","Spain","Algiedi solar farm","--",NA,NA,20.6,"MWp/dc","PV","operating",2022,NA,NA,NA,"Solaria Energía y Medio Ambiente SA",NA,NA,"41.9829","-4.4281","approximate","Magaz de Pisuerga",NA,NA,NA,"Southern Europe","Europe","L100000824313","G100000827423","WKSL: WKSL: 77659","PRETOR: RE-113764","https://www.gem.wiki/Algiedi_solar_farm"
"2024/11/19","Spain","Alhendín solar farm","--",NA,NA,56,"MWp/dc","PV","operating",2024,NA,NA,NA,"BayWa R.E. AG",NA,NA,"37.1774","-3.5937","approximate","Granada","Comarca de la Vega de Granada","Granada","Andalucía","Southern Europe","Europe","L100000824314","G100000827424",NA,NA,"https://www.gem.wiki/Alhendín_solar_farm"
"2024/04/02","Spain","Aliaga solar farm","1",NA,NA,80,"MWp/dc","PV","pre-construction",NA,NA,"Sonnedix",NA,NA,NA,NA,"37.6087","-4.6016","approximate",NA,NA,NA,"Andalucía","Southern Europe","Europe","L100000824315","G100000827425",NA,NA,"https://www.gem.wiki/Aliaga_solar_farm"
"2024/04/02","Spain","Aliaga solar farm","2",NA,NA,80,"MWp/dc","PV","pre-construction",NA,NA,"Sonnedix",NA,NA,NA,NA,"37.6087","-4.6016","approximate",NA,NA,NA,"Andalucía","Southern Europe","Europe","L100000824315","G100000827426",NA,NA,"https://www.gem.wiki/Aliaga_solar_farm"
"2021/08/09","Spain","Alicante solar farm","1",NA,NA,70,"unknown","PV","cancelled - inferred 4 y",NA,NA,NA,NA,"BayWa R.E. AG",NA,NA,"37.9774","-0.6872","approximate","Alicante",NA,NA,"Valencia","Southern Europe","Europe","L100000806118","G100000807039",NA,NA,"https://www.gem.wiki/Alicante_solar_farm"
"2024/04/19","Spain","Alisio solar farm","--",NA,NA,82.5,"unknown","PV","pre-construction",NA,NA,NA,NA,"Ignis Energía SL",NA,NA,"37.5475","-4.3671","approximate",NA,NA,NA,"Andalucía","Southern Europe","Europe","L100001005616","G100001006732",NA,NA,"https://www.gem.wiki/Alisio_solar_farm"
"2024/04/26","Spain","Alizarsun solar farm","--",NA,NA,50,"unknown","PV","announced",NA,NA,NA,NA,NA,NA,NA,"41.1820","-0.4397","approximate",NA,NA,NA,"Aragon","Southern Europe","Europe","L100001007668","G100001008894","WKSL: 78722",NA,"https://www.gem.wiki/Alizarsun_solar_farm"
"2024/02/27","Spain","Aljarafe solar farm","--","Planta solar fotovoltaica Aljarafe",NA,74.8,"MWac","PV","pre-construction",NA,NA,"Enel Green Power España",NA,"Enel Green Power España SL",NA,NA,"37.4186","-6.0950","approximate","Salteras",NA,"Sevilla","Andalucía","Southern Europe","Europe","L100000824316","G100000827427",NA,NA,"https://www.gem.wiki/Aljarafe_solar_farm"
"2024/04/02","Spain","Allives solar farm","--",NA,NA,120,"MWp/dc","PV","pre-construction",NA,NA,"Nara Solar",NA,NA,NA,NA,"37.2841","-5.9294","approximate","Dos Hermanas",NA,"Dos Hermanas",NA,"Southern Europe","Europe","L100000824317","G100000827428",NA,NA,"https://www.gem.wiki/Allives_solar_farm"
"2024/03/15","Spain","Almagro solar farm","--","Planta solar fotovoltaica Almagro",NA,100,"unknown","PV","pre-construction",NA,NA,"Capital Wings 2000",NA,"Dos Grados Capital",NA,NA,"38.8914","-4.0344","approximate","Corral de Calatrava",NA,"Ciudad Real","Castilla-La Mancha","Southern Europe","Europe","L100000824318","G100000827429",NA,NA,"https://www.gem.wiki/Almagro_solar_farm"
"2024/02/13","Spain","Almansa (Akuo) solar farm","1","Parque Solar Fotovoltaica Almansa 1, Parque Solar Fotovoltaica Almansa",NA,75.6,"MWac","PV","pre-construction",NA,NA,"Figsel Trade",NA,"Akuo Energy",NA,NA,"38.8054","-0.8808","approximate",NA,NA,"Valencia","Valencian Community","Southern Europe","Europe","L100000824319","G100000827430",NA,NA,"https://www.gem.wiki/Almansa_(Akuo)_solar_farm"
"2023/01/11","Spain","Almansa (X-Elio) solar farm","1",NA,NA,50,"MWp/dc","PV","operating",2019,NA,"Eiffage Énergie Systèmes",NA,"X-Elio",NA,NA,"38.8300","-1.0480","exact","Almansa",NA,NA,"Albacete","Southern Europe","Europe","L100000805765","G100000806634",NA,"PRETOR: RE-113001,WKSL: WKSL: 82461","https://www.gem.wiki/Almansa_(X-Elio)_solar_farm"
"2024/04/26","Spain","Almansol solar farm","--",NA,NA,50,"MWp/dc","PV","announced",NA,NA,NA,NA,NA,NA,NA,"38.8863","-2.0153","approximate",NA,NA,NA,"Albacete","Southern Europe","Europe","L100001007669","G100001008895","WKSL: WKSL: 75379",NA,"https://www.gem.wiki/Almansol_solar_farm"
"2023/01/11","Spain","Almaraz solar farm","1",NA,NA,42.6,"MWp/dc","PV","operating",2022,NA,NA,NA,"Iberdrola SA",NA,NA,"39.7867","-5.7003","approximate",NA,"Campo Arañuelo","Cáceres","Extremadura","Southern Europe","Europe","L100000824320","G100000827431","WKSL: WKSL: 82659","PRETOR: RE-113325","https://www.gem.wiki/Almaraz_solar_farm"
"2023/01/11","Spain","Almaraz solar farm","2",NA,NA,42.6,"MWp/dc","PV","operating",2022,NA,NA,NA,"Iberdrola SA",NA,NA,"39.7867","-5.7003","approximate",NA,"Campo Arañuelo","Cáceres","Extremadura","Southern Europe","Europe","L100000824320","G100000827432","WKSL: WKSL: 82659","PRETOR: RE-113326","https://www.gem.wiki/Almaraz_solar_farm"
"2024/04/19","Spain","Almargo solar farm","--",NA,NA,100,"unknown","PV","pre-construction",NA,NA,NA,NA,"Capital Wings 2000 SL",NA,NA,"38.8592","-4.0811","approximate","Corral de Calatrava",NA,"Ciudad Real","Castilla-La Mancha","Southern Europe","Europe","L100001005605","G100001006716",NA,NA,"https://www.gem.wiki/Almargo_solar_farm"
"2024/01/31","Spain","Almenara solar farm","--","Planta Solar Fotovoltaica Almenara Solar",NA,50,"MWp/dc","PV","pre-construction",NA,NA,NA,NA,"ib vogt gmbH; Ignis Energía SL",NA,NA,"41.3684","1.3243","exact","El Pla de Santa Maria","Alt Camp","Tarragona","Catalonia","Southern Europe","Europe","L100000824321","G100000827433",NA,NA,"https://www.gem.wiki/Almenara_solar_farm"
"2024/04/26","Spain","Almendralejo solar farm","--",NA,NA,125,"unknown","PV","operating",2023,NA,NA,NA,"Acciona SA",NA,NA,"38.8695","-6.9791","approximate",NA,NA,"Badajoz","Extremadura","Southern Europe","Europe","L100001007670","G100001008896",NA,NA,"https://www.gem.wiki/Almendralejo_solar_farm"
"2024/04/02","Spain","Almendro solar farm","--","Planta solar fotovoltaica Almendro Solar",NA,50,"MWp/dc","PV","pre-construction",NA,NA,"Almendro Solar",NA,"Hanwha Energy Corp","한화에너지",NA,"42.0963","-4.6095","approximate","Villaumbrales",NA,"Palencia","Castilla y León","Southern Europe","Europe","L100001004587","G100001005384",NA,NA,"https://www.gem.wiki/Almendro_solar_farm"
"2024/04/02","Spain","Almeria (Euder Energy) solar farm","1",NA,NA,50,"MWp/dc","PV","announced",NA,NA,"Euder Energy",NA,"Euder Energy SL",NA,NA,"36.8564","-2.4669","approximate","Almeria",NA,NA,"Almeria","Southern Europe","Europe","L100000824322","G100000827434",NA,NA,"https://www.gem.wiki/Almeria_(Euder_Energy)_solar_farm"
"2024/04/02","Spain","Almeria (Euder Energy) solar farm","2",NA,NA,50,"MWp/dc","PV","announced",NA,NA,"Euder Energy",NA,"Euder Energy SL",NA,NA,"36.8564","-2.4669","approximate","Almeria",NA,NA,"Almeria","Southern Europe","Europe","L100000824322","G100000827435",NA,NA,"https://www.gem.wiki/Almeria_(Euder_Energy)_solar_farm"
"2024/04/02","Spain","Almeria (Euder Energy) solar farm","3",NA,NA,50,"MWp/dc","PV","announced",NA,NA,"Euder Energy",NA,"Euder Energy SL",NA,NA,"36.8564","-2.4669","approximate","Almeria",NA,NA,"Almeria","Southern Europe","Europe","L100000824322","G100000827436",NA,NA,"https://www.gem.wiki/Almeria_(Euder_Energy)_solar_farm"
"2024/04/15","Spain","Almoguera 1 solar farm","--",NA,NA,45.6,"MWp/dc","PV","pre-construction",NA,NA,NA,NA,"Libienergy Energías SL",NA,NA,"40.4170","-2.9214","approximate","Pastrana",NA,"Guadalajara","Castilla-La Mancha","Southern Europe","Europe","L100001005464","G100001006503",NA,NA,"https://www.gem.wiki/Almoguera_1_solar_farm"
"2024/04/12","Spain","Alsemur solar farm","Alsemur 1",NA,NA,38,"MWp/dc","PV","pre-construction",NA,NA,NA,NA,"Solaer Energías Bahía Blanca SL",NA,NA,"38.6588","-4.2951","approximate","Brazatortas",NA,"Ciudad Real","Castilla-La Mancha","Southern Europe","Europe","L100001005376","G100001006409",NA,NA,"https://www.gem.wiki/Alsemur_solar_farm"
"2024/04/12","Spain","Alsemur solar farm","Alsemur 2",NA,NA,38,"MWp/dc","PV","pre-construction",NA,NA,NA,NA,"Solaer Energías Bahía Blanca SL",NA,NA,"38.6588","-4.2951","approximate","Brazatortas",NA,"Ciudad Real","Castilla-La Mancha","Southern Europe","Europe","L100001005376","G100001006410",NA,NA,"https://www.gem.wiki/Alsemur_solar_farm"
"2024/03/13","Spain","Aluvión solar farm","--","Parque solar fotovoltaico Aluvión Solar",NA,45,"MWac","PV","pre-construction",NA,NA,"Aluvión Solar",NA,"Ignis Energía SL",NA,NA,"40.5704","-3.0985","approximate","Horche",NA,"Guadalajara","Castilla-La Mancha","Southern Europe","Europe","L100000824325","G100000827439",NA,NA,"https://www.gem.wiki/Aluvión_solar_farm"
"2023/01/11","Spain","Alvarado solar farm (Spain)","1",NA,"Alvarado-La Risca 2 (Phase 2), Alvarado-La Risca 1 (Phase 1)",50,"MWp/dc","PV","operating",2020,NA,"Solarpack",NA,"Bruc Iberia Energy Investment Partners",NA,NA,"38.8098","-6.7908","approximate","Alvarado-La Risca",NA,"Badajoz","Extremadura","Southern Europe","Europe","L100000805992","G100000806897",NA,"PRETOR: RE-113158","https://www.gem.wiki/Alvarado_solar_farm_(Spain)"
"2023/01/11","Spain","Alvarado solar farm (Spain)","2",NA,"Alvarado-La Risca 2 (Phase 2), Alvarado-La Risca 1 (Phase 1)",50,"MWp/dc","PV","operating",2020,NA,"Solarpack",NA,"Bruc Iberia Energy Investment Partners",NA,NA,"38.8098","-6.7908","approximate","Alvarado-La Risca",NA,"Badajoz","Extremadura","Southern Europe","Europe","L100000805992","G100000806898",NA,"PRETOR: RE-113159","https://www.gem.wiki/Alvarado_solar_farm_(Spain)"
"2024/03/18","Spain","Alya solar farm","--","Parque solar fotovoltaico Alya",NA,47.2,"MWac","PV","pre-construction",NA,NA,"Energía Inagotable de Alya",NA,"Forestalia SL",NA,NA,"41.5424","0.2082","approximate","Fraga",NA,"Huesca","Aragón","Southern Europe","Europe","L100000824326","G100000827440","WKSL: WKSL: 83977",NA,"https://www.gem.wiki/Alya_solar_farm"
"2024/03/18","Spain","Amaltea solar farm","--","Parque solar fotovoltaico Amaltea",NA,49.5,"MWac","PV","pre-construction",NA,NA,"Energía Inagotable Amaltea",NA,"Forestalia SL",NA,NA,"41.5006","0.2078","approximate","Fraga",NA,"Huesca","Aragón","Southern Europe","Europe","L100000824327","G100000827441",NA,NA,"https://www.gem.wiki/Amaltea_solar_farm"
"2023/01/18","Spain","Amazon 1 solar farm","--",NA,NA,111,"unknown","PV","operating",2022,NA,"Amazon",NA,"Amazon",NA,NA,"39.5151","-6.3943","approximate","Cáceres",NA,"Cáceres","Extremadura","Southern Europe","Europe","L100000824328","G100000827442",NA,NA,"https://www.gem.wiki/Amazon_1_solar_farm"
"2023/01/18","Spain","Amazon Alamo solar farm","--",NA,NA,100,"unknown","PV","operating",2022,NA,"Amazon",NA,"Amazon",NA,NA,"39.9144","-4.0319","approximate",NA,"La Sagra","Toledo","Castile-La Mancha","Southern Europe","Europe","L100000824329","G100000827443",NA,NA,"https://www.gem.wiki/Amazon_Alamo_solar_farm"
"2024/12/06","Spain","Amazon Andalucia 2 solar farm","--",NA,NA,59,"unknown","PV","construction",2026,NA,"Amazon",NA,"Amazon",NA,NA,"37.5306","-4.7529","approximate",NA,NA,"Córdoba","Andalusia","Southern Europe","Europe","L100000824330","G100000827444",NA,NA,"https://www.gem.wiki/Amazon_Andalucia_2_solar_farm"
"2025/01/06","Spain","Amazon Antilia solar farm","--",NA,NA,40,"unknown","PV","operating",2021,NA,"Amazon",NA,"Amazon",NA,NA,"41.2244","-3.9954","approximate",NA,NA,"Segovia","Castile and León","Southern Europe","Europe","L100000824331","G100000827445",NA,NA,"https://www.gem.wiki/Amazon_Antilia_solar_farm"
"2025/01/07","Spain","Amazon Arco solar farm","--",NA,NA,137.5,"unknown","PV","operating",2021,NA,"Amazon",NA,"Amazon",NA,NA,"36.6902","-6.1323","approximate","Jerez","Campiña de Jerez","Cádiz","Andalusia","Southern Europe","Europe","L100000824332","G100000827446",NA,NA,"https://www.gem.wiki/Amazon_Arco_solar_farm"
"2025/01/06","Spain","Amazon Armada solar farm","--","Planta solar fotovoltaica Armada Solar","Armada Solar",82.5,"MWac","PV","operating",2021,NA,"Armada Solar",NA,"Amazon",NA,NA,"40.3386","-3.1914","approximate","Ambite",NA,"Madrid","Community of Madrid","Southern Europe","Europe","L100000824333","G100000827447",NA,NA,"https://www.gem.wiki/Amazon_Armada_solar_farm"
"2025/01/06","Spain","Amazon Arroyadas solar farm","--",NA,NA,20.1,"unknown","PV","operating",2022,NA,"Amazon",NA,"Amazon",NA,NA,"41.5209","-4.7769","approximate",NA,NA,"Valladolid","Castile and León","Southern Europe","Europe","L100000824334","G100000827448",NA,NA,"https://www.gem.wiki/Amazon_Arroyadas_solar_farm"
"2023/01/18","Spain","Amazon Cabrera solar farm","--",NA,NA,149,"unknown","PV","operating",2020,NA,"Amazon",NA,"Amazon",NA,NA,"37.3817","-5.9804","approximate","Seville",NA,"Sevilla","Andalusia","Southern Europe","Europe","L100000824335","G100000827449",NA,NA,"https://www.gem.wiki/Amazon_Cabrera_solar_farm"
"2024/03/15","Spain","Amazon Cuenca 3 solar farm","--",NA,NA,152,"unknown","PV","shelved - inferred 2 y",NA,NA,"Amazon",NA,"Amazon",NA,NA,"40.0082","-2.5910","approximate",NA,NA,"Cuenca","Castile-La Mancha","Southern Europe","Europe","L100000824337","G100000827451",NA,NA,"https://www.gem.wiki/Amazon_Cuenca_3_solar_farm"
"2024/03/07","Spain","Amazon Cáceres 3 solar farm","--",NA,NA,364,"unknown","PV","shelved - inferred 2 y",NA,NA,"Amazon",NA,"Amazon",NA,NA,"39.2750","-5.7165","approximate",NA,"Miajadas","Cáceres","Extremadura","Southern Europe","Europe","L100000824336","G100000827450",NA,NA,"https://www.gem.wiki/Amazon_Cáceres_3_solar_farm"
"2023/01/18","Spain","Amazon Hijar 1 solar farm","--",NA,NA,49,"unknown","PV","operating",2021,NA,"Amazon",NA,"Amazon",NA,NA,"41.1757","-0.4536","approximate",NA,"Bajo Martín",NA,"Aragón","Southern Europe","Europe","L100000824338","G100000827452",NA,NA,"https://www.gem.wiki/Amazon_Hijar_1_solar_farm"
"2024/03/04","Spain","Amazon Palencia solar farm","--",NA,NA,28.6,"unknown","PV","announced",NA,NA,"Amazon",NA,"Amazon",NA,NA,"42.1525","-4.6940","approximate",NA,NA,"Palencia","Castile and León","Southern Europe","Europe","L100000824339","G100000827453",NA,NA,"https://www.gem.wiki/Amazon_Palencia_solar_farm"
"2024/04/05","Spain","Amazon Solar Farm - Andalucia","1",NA,NA,59,"unknown","PV","construction",2026,NA,"Amazon",NA,"Amazon",NA,NA,"38.7986","-6.2371","approximate",NA,NA,"Badajoz","Extremadura","Southern Europe","Europe","L100000805701","G100000806557",NA,NA,"https://www.gem.wiki/Amazon_Solar_Farm_-_Andalucia"
"2024/04/05","Spain","Amazon Solar Farm - Extremadura","1",NA,NA,111,"unknown","PV","construction",2027,NA,"Amazon",NA,"Amazon",NA,NA,"37.3943","-5.9984","approximate",NA,NA,"Sevilla","Andalucía","Southern Europe","Europe","L100000805702","G100000806558",NA,NA,"https://www.gem.wiki/Amazon_Solar_Farm_-_Extremadura"
"2025/01/06","Spain","Amazon Villanueva solar farm","--",NA,NA,40,"unknown","PV","operating",2021,NA,"Amazon",NA,"Amazon",NA,NA,"39.9467","-2.5984","approximate",NA,NA,"Cuenca","Castile-La Mancha","Southern Europe","Europe","L100000824340","G100000827454",NA,NA,"https://www.gem.wiki/Amazon_Villanueva_solar_farm"
"2021/08/09","Spain","Amazon Zaragoza solar farm","1",NA,NA,50,"unknown","PV","operating",2021,NA,"Amazon",NA,"Amazon",NA,NA,"41.6517","-0.7839","approximate",NA,NA,NA,"Zaragoza","Southern Europe","Europe","L100000805700","G100000806556",NA,NA,"https://www.gem.wiki/Amazon_Zaragoza_solar_farm"
"2024/11/19","Spain","Amazon Zaratan solar farm","--",NA,NA,20.1,"unknown","PV","announced",2025,NA,"Amazon",NA,"Amazon",NA,NA,"41.6467","-4.8229","approximate",NA,NA,"Valladolid","Castile and León","Southern Europe","Europe","L100000824341","G100000827455",NA,NA,"https://www.gem.wiki/Amazon_Zaratan_solar_farm"
"2024/03/27","Spain","Anclote solar farm","--","Planta fotovoltaica Anclote",NA,62.5,"unknown","PV","pre-construction",NA,NA,NA,NA,"Tejo Solar",NA,NA,"36.4327","-5.4519","approximate",NA,"Campo de Gibraltar","Cádiz","Andalusia","Southern Europe","Europe","L100000824343","G100000827457",NA,NA,"https://www.gem.wiki/Anclote_solar_farm"
"2024/03/01","Spain","Andarríos solar farm","--","Planta solar fotovoltaica Andarríos Solar",NA,58.1,"MWac","PV","pre-construction",NA,NA,NA,NA,"Andarríos Solar SL",NA,NA,"41.8577","-4.8915","approximate","Villalba de los Alcores",NA,"Valladolid","Castilla y León","Southern Europe","Europe","L100001003681","G100001004189",NA,NA,"https://www.gem.wiki/Andarríos_solar_farm"
"2023/01/04","Spain","Andasol 1 solar farm","--",NA,NA,50,"MWac","Solar Thermal","operating",2008,NA,NA,NA,"Solar Millennium ; Cobra Group",NA,NA,"37.2282","-3.0685","exact",NA,"Comarca de Guadix","Granada","Andalusia","Southern Europe","Europe","L100000824345","G100000827459",NA,"PRETOR: RE-005017","https://www.gem.wiki/Andasol_1_solar_farm"
"2023/01/04","Spain","Andasol 2 solar farm","--",NA,NA,50,"MWac","Solar Thermal","operating",2009,NA,NA,NA,"Solar Millennium ; Cobra Group",NA,NA,"37.2164","-3.0565","exact",NA,"Comarca de Guadix","Granada","Andalusia","Southern Europe","Europe","L100000824346","G100000827460",NA,"PRETOR: RE-005018","https://www.gem.wiki/Andasol_2_solar_farm"
"2023/01/04","Spain","Andasol 3 solar farm","--",NA,NA,50,"MWac","Solar Thermal","operating",2011,NA,NA,NA,"Ferrostaal; RWE Renewables; Solar Millennium",NA,NA,"37.2262","-3.0508","exact",NA,"Comarca de Guadix","Granada","Andalusia","Southern Europe","Europe","L100000824347","G100000827461",NA,"PRETOR: RE-106604","https://www.gem.wiki/Andasol_3_solar_farm"
"2024/04/02","Spain","Andrea solar farm","--",NA,NA,250,"MWp/dc","PV","pre-construction",NA,NA,"Enel Green Power",NA,"Endesa SA",NA,NA,"37.2453","-1.9188","approximate",NA,NA,"Almeria","Andalusia","Southern Europe","Europe","L100000824348","G100000827462",NA,NA,"https://www.gem.wiki/Andrea_solar_farm"
"2024/12/06","Spain","Andujar solar farm","1",NA,"Ence Andujar",100,"unknown","PV","construction",2025,NA,NA,NA,"Naturgy Energy Group SA",NA,NA,"38.0593","-4.0366","approximate","Andújar",NA,"Jaén","Andalucía","Southern Europe","Europe","L100000805851","G100000806733",NA,NA,"https://www.gem.wiki/Andujar_solar_farm"
"2023/01/11","Spain","Andévalo solar farm","1",NA,NA,50,"MWp/dc","PV","operating",2020,NA,"Iberdrola Renovables Energia",NA,"Iberdrola SA",NA,NA,"37.6102","-7.2453","approximate","Puebla de Guzmán","Andévalo",NA,"Huelva","Southern Europe","Europe","L100000805876","G100000806761","WKSL: WKSL: 74145","PRETOR: RE-113176","https://www.gem.wiki/Andévalo_solar_farm"
"2024/04/02","Spain","Anet solar farm","--",NA,NA,75,"MWp/dc","PV","pre-construction",NA,NA,"Nara Solar",NA,NA,NA,NA,"37.6087","-4.6016","approximate",NA,NA,NA,"Andalucía","Southern Europe","Europe","L100000824349","G100000827463",NA,NA,"https://www.gem.wiki/Anet_solar_farm"
"2024/03/25","Spain","Anguita solar farm","--","Planta fotovoltaica Anguita",NA,82.5,"MWac","PV","pre-construction",NA,NA,"Geoxia Trade",NA,"CSF Continua Anguita SL",NA,NA,"41.2130","-2.3530","approximate","Arcos de Jalón",NA,"Soria","Castilla y León","Southern Europe","Europe","L100000824350","G100000827464",NA,NA,"https://www.gem.wiki/Anguita_solar_farm"
"2024/04/25","Spain","Antequera solar farm","--",NA,NA,44,"unknown","PV","pre-construction",NA,NA,NA,NA,"Soltec Energias Renovables SL",NA,NA,"37.0200","-4.5610","approximate","Antequera",NA,NA,"Andalucia","Southern Europe","Europe","L100001007624","G100001008814",NA,NA,"https://www.gem.wiki/Antequera_solar_farm"
"2024/03/25","Spain","Anthus Energy solar farm","--",NA,NA,118,"MWp/dc","PV","pre-construction",NA,NA,"Isemaren",NA,NA,NA,NA,"41.7700","-4.2093","approximate",NA,NA,"Castilla y León",NA,"Southern Europe","Europe","L100000824351","G100000827465",NA,NA,"https://www.gem.wiki/Anthus_Energy_solar_farm"
"2024/04/02","Spain","Antracita solar farm","--","Planta solar fotovoltaica Antracita",NA,49.9,"MWp/dc","PV","pre-construction",NA,NA,"Planta Fotovoltaica Antracita",NA,"Nogal Medina SL",NA,NA,"42.6352","-6.1141","approximate","Villagatón",NA,"León","Castilla y León","Southern Europe","Europe","L100001004597","G100001005394",NA,NA,"https://www.gem.wiki/Antracita_solar_farm"
"2024/04/03","Spain","Apamate solar farm","--","Planta solar fotovoltaica Apamate Solar",NA,50,"MWp/dc","PV","pre-construction",NA,NA,"Apamate Solar",NA,"Ignis Energía SL",NA,NA,"42.1146","-4.6519","approximate","Becerril de Campos",NA,"Palencia","Castilla y León","Southern Europe","Europe","L100001004642","G100001005446",NA,NA,"https://www.gem.wiki/Apamate_solar_farm"
"2023/01/10","Spain","Apicio solar farm","1",NA,"Brovales Apicio",50,"MWp/dc","PV","operating",2021,NA,"Enel Green Power",NA,"Endesa SA",NA,NA,"38.1663","-6.6601","exact","Fregenal de la Sierra","Sierra Suroeste","Badajoz","Extremadura","Southern Europe","Europe","L100000805780","G100000806654",NA,"PRETOR: RE-113521","https://www.gem.wiki/Apicio_solar_farm"
"2024/03/26","Spain","Aquarii solar farm (Spain)","--","Planta fotovoltaica Aquarii Solar",NA,89.4,"MWac","PV","pre-construction",NA,NA,NA,NA,"Planta FV 127 SL",NA,NA,"42.6039","-6.0218","approximate","Villamejil",NA,"León","Castilla y León","Southern Europe","Europe","L100000824352","G100000827466",NA,NA,"https://www.gem.wiki/Aquarii_solar_farm_(Spain)"
"2023/02/02","Spain","Ar-Hue solar farm","1",NA,"Ar-Hue-I",25,"MWp/dc","PV","shelved - inferred 2 y",NA,NA,"Solaria Energía y Medio Ambiente",NA,"Solaria Energía y Medio Ambiente SA",NA,NA,"42.1361","-0.0298","approximate",NA,NA,"Huesca","Aragón","Southern Europe","Europe","L100000805986","G100000806891",NA,NA,"https://www.gem.wiki/Ar-Hue_solar_farm"
"2024/03/27","Spain","Ara solar farm","1",NA,NA,60,"MWp/dc","PV","shelved - inferred 2 y",NA,NA,NA,NA,"Solaria Energía y Medio Ambiente SA",NA,NA,"40.8805","-6.6236","approximate","Olmedo de Camaces",NA,"Salamanca","Castilla y León","Southern Europe","Europe","L100000806797","G100000807787",NA,NA,"https://www.gem.wiki/Ara_solar_farm"
"2024/03/27","Spain","Ara solar farm","2",NA,NA,60,"MWp/dc","PV","shelved - inferred 2 y",NA,NA,NA,NA,"Solaria Energía y Medio Ambiente SA",NA,NA,"40.9744","-6.5868","approximate","Cerralbo",NA,"Salamanca","Castilla y León","Southern Europe","Europe","L100000806797","G100000807788",NA,NA,"https://www.gem.wiki/Ara_solar_farm"
"2024/03/27","Spain","Ara solar farm","3",NA,NA,60,"MWp/dc","PV","shelved - inferred 2 y",NA,NA,NA,NA,"Solaria Energía y Medio Ambiente SA",NA,NA,"40.9994","-6.6711","approximate","Bermellar",NA,"Salamanca","Castilla y León","Southern Europe","Europe","L100000806797","G100000807789",NA,NA,"https://www.gem.wiki/Ara_solar_farm"
"2024/03/27","Spain","Ara solar farm","4",NA,NA,60,"MWp/dc","PV","shelved - inferred 2 y",NA,NA,NA,NA,"Solaria Energía y Medio Ambiente SA",NA,NA,"41.0214","-6.6380","approximate","Saldeana",NA,"Salamanca","Castilla y León","Southern Europe","Europe","L100000806797","G100000807790",NA,NA,"https://www.gem.wiki/Ara_solar_farm"
"2024/03/27","Spain","Ara solar farm","5",NA,NA,60,"MWp/dc","PV","shelved - inferred 2 y",NA,NA,NA,NA,"Solaria Energía y Medio Ambiente SA",NA,NA,"41.0725","-6.6662","approximate","Barruecopardo",NA,"Salamanca","Castilla y León","Southern Europe","Europe","L100000806797","G100000807791",NA,NA,"https://www.gem.wiki/Ara_solar_farm"
"2024/03/27","Spain","Ara solar farm","6",NA,NA,60,"MWp/dc","PV","shelved - inferred 2 y",NA,NA,NA,NA,"Solaria Energía y Medio Ambiente SA",NA,NA,"41.0482","-6.7514","approximate","Saucelle",NA,"Salamanca","Castilla y León","Southern Europe","Europe","L100000806797","G100000807792",NA,NA,"https://www.gem.wiki/Ara_solar_farm"
"2024/02/13","Spain","Arada solar farm","--","Planta fotovoltaica Arada Solar",NA,155,"MWac","PV","pre-construction",NA,NA,"Statkraft",NA,"Statkraft AS",NA,NA,"39.8116","-0.2005","exact",NA,"Castelló / Castellón",NA,"Valencian Community","Southern Europe","Europe","L100000824353","G100000827467",NA,NA,"https://www.gem.wiki/Arada_solar_farm"
"2024/04/03","Spain","Arcatierra solar farm","--","Planta solar fotovoltaica Arcatierra",NA,36.3,"MWp/dc","PV","pre-construction",NA,NA,"Alamo Energías",NA,"Alamo Energías SLU",NA,NA,"42.2521","-6.0417","approximate","Quintana y Congosto",NA,"León","Castilla y León","Southern Europe","Europe","L100001004632","G100001005433",NA,NA,"https://www.gem.wiki/Arcatierra_solar_farm"
"2024/04/02","Spain","Archidona (Bruc Energy) solar farm","--",NA,NA,400,"MWp/dc","PV","pre-construction",NA,NA,"Bruc Iberia Energy Investment Partners",NA,"Bruc Iberia Energy Investment Partners",NA,NA,"36.7317","-4.5018","approximate",NA,"Málaga",NA,NA,"Southern Europe","Europe","L100000824354","G100000827468",NA,NA,"https://www.gem.wiki/Archidona_(Bruc_Energy)_solar_farm"
"2023/01/18","Spain","Archidona (Encavis) solar farm","--",NA,NA,56.3,"unknown","PV","operating",NA,NA,NA,NA,"Encavis AG",NA,NA,"37.0950","-4.3815","approximate",NA,"Nororma","Malaga","Andalusia","Southern Europe","Europe","L100000824355","G100000827469","WKSL: WKSL: 83465",NA,"https://www.gem.wiki/Archidona_(Encavis)_solar_farm"
"2024/04/02","Spain","Archidona (Wezen) solar farm","--",NA,NA,103.8,"MWp/dc","PV","pre-construction",NA,NA,"Wezen Solar",NA,NA,NA,NA,"37.6087","-4.6016","approximate",NA,NA,"Andalucía",NA,"Southern Europe","Europe","L100000824356","G100000827470",NA,NA,"https://www.gem.wiki/Archidona_(Wezen)_solar_farm"
"2023/01/10","Spain","Ardila solar farm","1",NA,NA,50,"MWp/dc","PV","operating",2021,NA,"Enel Green Power",NA,"Endesa SA",NA,NA,"38.1590","-6.5906","approximate","Fregenal de la Sierra",NA,NA,"Badajoz","Southern Europe","Europe","L100000805783","G100000806657",NA,"PRETOR: RE-113525","https://www.gem.wiki/Ardila_solar_farm"
"2023/01/11","Spain","Arenales (Iberdrola) solar farm","1",NA,NA,150,"unknown","PV","operating",2021,NA,"Iberdrola Renovables Energia",NA,"Iberdrola SA",NA,NA,"39.4578","-6.4421","approximate","Caceres",NA,NA,"Caceres","Southern Europe","Europe","L100000805877","G100000806762","WKSL: WKSL: 74148","PRETOR: RE-113511","https://www.gem.wiki/Arenales_(Iberdrola)_solar_farm"
"2024/03/21","Spain","Arenales (Mitra) solar farm","1",NA,NA,113.3,"MWp/dc","PV","pre-construction",NA,NA,NA,NA,"Compañía Española de Petróleos SA",NA,NA,"38.7910","-5.6362","approximate",NA,NA,NA,"Extremadura","Southern Europe","Europe","L100000824357","G100000827471",NA,NA,"https://www.gem.wiki/Arenales_(Mitra)_solar_farm"
"2024/03/21","Spain","Arenales (Mitra) solar farm","2",NA,NA,112.5,"MWp/dc","PV","pre-construction",NA,NA,NA,NA,"Compañía Española de Petróleos SA",NA,NA,"38.7910","-5.6362","approximate",NA,NA,NA,"Extremadura","Southern Europe","Europe","L100000824357","G100000827472",NA,NA,"https://www.gem.wiki/Arenales_(Mitra)_solar_farm"
"2024/03/21","Spain","Arenales (Mitra) solar farm","3",NA,NA,145.2,"MWp/dc","PV","pre-construction",NA,NA,NA,NA,"Compañía Española de Petróleos SA",NA,NA,"38.7910","-5.6362","approximate",NA,NA,NA,"Extremadura","Southern Europe","Europe","L100000824357","G100000827473",NA,NA,"https://www.gem.wiki/Arenales_(Mitra)_solar_farm"
"2023/01/04","Spain","Arenales Thermosolar solar farm","--",NA,NA,50,"MWac","Solar Thermal","operating",2013,NA,"Obrascón Huarte Lain (OHL)",NA,"Obrascón Huarte Lain (OHL); RREEF Infrastructure",NA,NA,"37.1549","-5.5530","exact",NA,NA,"Sevilla","Andalusia","Southern Europe","Europe","L100000824358","G100000827474",NA,"PRETOR: RE-111657","https://www.gem.wiki/Arenales_Thermosolar_solar_farm"
"2023/01/03","Spain","Arenosas solar farm","--",NA,"Arcos Arenosas",46.6,"MWp/dc","PV","operating",2022,NA,NA,NA,"Renewables Infrastructure Group LTD (TRIG)",NA,NA,"36.6061","-5.7988","approximate","San José del Valle","Cadiz",NA,"Almeria","Southern Europe","Europe","L100000824359","G100000827475",NA,"PRETOR: RE-113883","https://www.gem.wiki/Arenosas_solar_farm"
"2024/04/25","Spain","Arericsol 8 solar farm","--",NA,NA,25,"MWp/dc","PV","operating",2023,NA,NA,NA,"ERG SpA",NA,NA,"38.1678","-6.6534","approximate","Fregenal de la Sierra",NA,"Badajoz","Extremadura","Southern Europe","Europe","L100001007622","G100001008807",NA,NA,"https://www.gem.wiki/Arericsol_8_solar_farm"
"2024/02/21","Spain","Armadura solar farm","--","Parque solar fotovoltaico Armadura Solar",NA,220.7,"MWp/dc","PV","pre-construction",NA,NA,"Armadura Solar",NA,"Azora Capital",NA,NA,"41.2628","-6.4653","approximate","Villarino de los Aires",NA,"Salamanca","Castile and León","Southern Europe","Europe","L100000824360","G100000827476",NA,NA,"https://www.gem.wiki/Armadura_solar_farm"
"2021/08/09","Spain","Arnedo solar farm","1",NA,"Arnedo Solar Plant",34,"MWp/dc","PV","operating",2008,NA,"Grupo T-Solar Global",NA,"Cubico Sustainable Investments",NA,NA,"42.2748","-2.0446","exact",NA,NA,NA,"Rioja","Southern Europe","Europe","L100000806007","G100000806916","WKSL: WKSL: 60022",NA,"https://www.gem.wiki/Arnedo_solar_farm"
"2024/04/05","Spain","Arroyadas solar farm","--",NA,NA,33,"MWp/dc","PV","operating",NA,NA,"Matrix Renewables",NA,"Matrix Renewables",NA,NA,"41.5230","-4.7768","exact",NA,NA,"Valladolid","Castilla y León","Southern Europe","Europe","L100000824361","G100000827477",NA,NA,"https://www.gem.wiki/Arroyadas_solar_farm"
"2024/03/27","Spain","Arroyo San Miguel solar farm","--",NA,NA,143.3,"MWp/dc","PV","pre-construction",NA,NA,"Sungrow Power",NA,NA,NA,NA,"38.7910","-5.6362","approximate",NA,NA,NA,"Extremadura","Southern Europe","Europe","L100000824362","G100000827478",NA,NA,"https://www.gem.wiki/Arroyo_San_Miguel_solar_farm"
"2024/03/25","Spain","Artico solar farm","--",NA,NA,100,"MWp/dc","PV","pre-construction",NA,NA,"Steag Solar Energy",NA,NA,NA,NA,"41.7700","-4.2093","approximate",NA,NA,"Castilla y León",NA,"Southern Europe","Europe","L100000824363","G100000827479",NA,NA,"https://www.gem.wiki/Artico_solar_farm"
"2024/02/09","Spain","Aspillera solar farm","--","Planta solar fotovoltaica Aspillera Solar",NA,50,"MWp/dc","PV","pre-construction",NA,NA,NA,NA,"Aspillera Solar SL",NA,NA,"41.5167","1.4353","approximate","Bellprat","Anoia","Barcelona","Cataluña","Southern Europe","Europe","L100001000847","G100001001204",NA,NA,"https://www.gem.wiki/Aspillera_solar_farm"
"2023/01/17","Spain","Aste CSP solar farm","1A",NA,NA,50,"MWac","Solar Thermal","operating",2012,NA,NA,NA,"ABN AMRO; ARiES Energy; Elecnor SA",NA,NA,"39.1800","-3.2647","exact",NA,"La Mancha","Ciudad Real","Castile-La Mancha","Southern Europe","Europe","L100000824364","G100000827480",NA,"PRETOR: RE-109178","https://www.gem.wiki/Aste_CSP_solar_farm"
"2023/01/17","Spain","Aste CSP solar farm","1B",NA,NA,50,"MWac","Solar Thermal","operating",2012,NA,NA,NA,"ABN AMRO; ARiES Energy; Elecnor SA",NA,NA,"39.1730","-3.2670","exact",NA,"La Mancha","Ciudad Real","Castile-La Mancha","Southern Europe","Europe","L100000824364","G100000827481",NA,"PRETOR: RE-109179","https://www.gem.wiki/Aste_CSP_solar_farm"
"2023/01/10","Spain","Astexol 2 CSP solar farm","--",NA,NA,49.9,"MWac","Solar Thermal","operating",2012,NA,NA,NA,"ABN AMRO; ARiES Energy; Elecnor SA",NA,NA,"38.8121","-7.0590","exact","Badajoz","Tierra de Badajoz","Badajoz","Extremadura","Southern Europe","Europe","L100000824365","G100000827482",NA,"PRETOR: RE-109079","https://www.gem.wiki/Astexol_2_CSP_solar_farm"
"2024/03/21","Spain","Atascaburras solar farm","--",NA,NA,166.3,"MWp/dc","PV","pre-construction",NA,NA,NA,NA,"Ric Sun Energy",NA,NA,"39.6111","-2.7904","approximate",NA,NA,NA,"Castilla-La Mancha","Southern Europe","Europe","L100000824366","G100000827483",NA,NA,"https://www.gem.wiki/Atascaburras_solar_farm"
"2024/04/19","Spain","Atenea solar farm","--",NA,NA,192,"MWac","PV","pre-construction",NA,NA,NA,NA,"Capital Energy",NA,NA,"42.6221","-5.9281","approximate",NA,NA,NA,"León","Southern Europe","Europe","L100001005587","G100001006687",NA,NA,"https://www.gem.wiki/Atenea_solar_farm"
"2023/01/11","Spain","Augusto solar farm","1",NA,"August Solar",50,"MWp/dc","PV","operating",2020,NA,"Enel Green Power España",NA,"Endesa SA",NA,NA,"38.8660","-6.8840","approximate","Badajoz",NA,NA,"Badajoz","Southern Europe","Europe","L100000805792","G100000806666",NA,"WKSL: WKSL: 82559,PRETOR: RE-113229","https://www.gem.wiki/Augusto_solar_farm"
"2024/02/09","Spain","Auliver solar farm","--","Planta solar fotovoltaica Auliver",NA,30,"MWp/dc","PV","pre-construction",NA,NA,NA,NA,"Auliver Solar SL",NA,NA,"41.3779","0.6251","approximate","La Granadella","Les Garrigues","Lleida","Cataluña","Southern Europe","Europe","L100001000861","G100001001218",NA,NA,"https://www.gem.wiki/Auliver_solar_farm"
"2024/03/07","Spain","Aura Solar (Spain) solar farm","--","Planta fotovoltaica Aura Solar",NA,700,"MWac","PV","pre-construction",NA,NA,NA,NA,"Audax Solar SPV XXVI SL",NA,NA,"40.7036","-3.3261","approximate","Galápagos",NA,"Guadalajara","Castilla–La Mancha","Southern Europe","Europe","L100001003772","G100001004327",NA,NA,"https://www.gem.wiki/Aura_Solar_(Spain)_solar_farm"
"2024/03/07","Spain","Aurea solar farm","--","Planta solar fotovoltaica Aurea",NA,171,"MWac","PV","pre-construction",NA,NA,"Aurea Solar",NA,"Fotowatio Renewable Ventures (FRV) BV",NA,NA,"39.1115","-6.7059","approximate","La Roca de la Sierra",NA,"Badajoz","Extremadura","Southern Europe","Europe","L100001003770","G100001004325",NA,NA,"https://www.gem.wiki/Aurea_solar_farm"
"2024/03/14","Spain","Avutarda solar farm","--","Planta fotovoltaica Avutarda Solar",NA,52.9,"MWac","PV","pre-construction",NA,NA,"Avutarda Solar",NA,"Ignis Energía SL",NA,NA,"40.5220","-3.5189","approximate","Paracuellos de Jarama",NA,"Madrid","Community of Madrid","Southern Europe","Europe","L100000824368","G100000827485",NA,NA,"https://www.gem.wiki/Avutarda_solar_farm"
"2024/04/02","Spain","Ayamonte Hybrid solar farm","--",NA,NA,57.6,"unknown","PV","announced",NA,NA,"Iberdrola",NA,"Iberdrola SA",NA,NA,"37.2148","-7.4001","approximate",NA,"Ayamonte",NA,NA,"Southern Europe","Europe","L100000824369","G100000827486",NA,NA,"https://www.gem.wiki/Ayamonte_Hybrid_solar_farm"
"2024/04/02","Spain","Ayora (Cobra Group) solar farm","--",NA,NA,199.9,"MWp/dc","PV","pre-construction",NA,NA,NA,NA,"Cobra Group",NA,NA,"39.0023","-1.0842","approximate",NA,"Ayora",NA,"Comunitat Valenciana","Southern Europe","Europe","L100000824370","G100000827487",NA,NA,"https://www.gem.wiki/Ayora_(Cobra_Group)_solar_farm"
"2024/11/19","Spain","Ayora (Grenergy) solar farm","1","Parque fotovoltaico Ayora 1, Parque fotovoltaico Ayora",NA,154.7,"MWac","PV","construction",2026,NA,"PV I Ataulfo",NA,"Grenergy",NA,NA,"38.9778","-1.1550","approximate","Ayora",NA,"Valencia","Valencian Community","Southern Europe","Europe","L100000824371","G100000827488",NA,NA,"https://www.gem.wiki/Ayora_(Grenergy)_solar_farm"
"2023/01/11","Spain","Azaila solar farm","1",NA,NA,50,"MWp/dc","PV","operating",2021,NA,"Iberdrola Renovables Energia",NA,"Iberdrola SA",NA,NA,"41.2598","-0.4550","exact","Azaila",NA,NA,"Teruel","Southern Europe","Europe","L100000805863","G100000806745",NA,"WKSL: WKSL: 75968","https://www.gem.wiki/Azaila_solar_farm"
"2024/04/02","Spain","Aznalcázar solar farm","--",NA,NA,492.5,"MWp/dc","PV","pre-construction",NA,NA,"Kiwi Solar 1",NA,NA,NA,NA,"37.6087","-4.6016","approximate",NA,NA,NA,"Andalucía","Southern Europe","Europe","L100000824372","G100000827489",NA,NA,"https://www.gem.wiki/Aznalcázar_solar_farm"
"2024/03/14","Spain","Azor solar farm","--","Planta fotovoltaica Azor Solar",NA,64.1,"MWac","PV","pre-construction",NA,NA,"Azor Solar",NA,"Ignis Energía SL",NA,NA,"40.5412","-3.5267","approximate","Paracuellos de Jarama",NA,"Madrid","Community of Madrid","Southern Europe","Europe","L100000824373","G100000827490",NA,NA,"https://www.gem.wiki/Azor_solar_farm"
"2023/01/17","Spain","Azuer solar farm","1",NA,NA,47.1,"MWp/dc","PV","operating",NA,NA,NA,NA,"Ibox Energy ; Cox Energy América",NA,NA,"39.0014","-3.3698","approximate","Manzanares",NA,NA,NA,"Southern Europe","Europe","L100000824374","G100000827491",NA,"PRETOR: RE-113498","https://www.gem.wiki/Azuer_solar_farm"
"2023/01/17","Spain","Azuer solar farm","2",NA,NA,36.3,"MWp/dc","PV","operating",NA,NA,NA,NA,"Ibox Energy ; Cox Energy América",NA,NA,"39.0014","-3.3698","approximate","Manzanares",NA,NA,NA,"Southern Europe","Europe","L100000824374","G100000827492",NA,"PRETOR: RE-113499","https://www.gem.wiki/Azuer_solar_farm"
"2024/04/26","Spain","Añover solar farm","--",NA,NA,50,"MWp/dc","PV","announced",NA,NA,NA,NA,NA,NA,NA,"39.5263","-3.9983","approximate",NA,NA,NA,"Castilla-La Mancha","Southern Europe","Europe","L100001007671","G100001008897",NA,"WKSL: WKSL: 77652","https://www.gem.wiki/Añover_solar_farm"
"2024/04/02","Spain","Bajo Guadalquivir solar farm","1",NA,NA,50,"MWp/dc","PV","pre-construction",NA,NA,NA,NA,"Esparity Solar",NA,NA,"37.0390","-5.8923","approximate",NA,NA,NA,"Andalucía","Southern Europe","Europe","L100000824375","G100000827493",NA,NA,"https://www.gem.wiki/Bajo_Guadalquivir_solar_farm"
"2024/04/02","Spain","Bajo Guadalquivir solar farm","2",NA,NA,50,"MWp/dc","PV","pre-construction",NA,NA,NA,NA,"Esparity Solar",NA,NA,"37.0390","-5.8923","approximate",NA,NA,NA,"Andalucía","Southern Europe","Europe","L100000824375","G100000827494",NA,NA,"https://www.gem.wiki/Bajo_Guadalquivir_solar_farm"
"2025/01/07","Spain","Ballestas solar farm","--","Instalación fotovoltaica híbrida Ballestas",NA,34.4,"MWac","PV","construction",NA,NA,"Sistemas Energéticos Serra de Lourenza",NA,"Iberdrola SA",NA,NA,"42.1525","-4.1376","approximate","Revilla Vallejera",NA,"Burgos","Castilla y León","Southern Europe","Europe","L100000824377","G100000827496",NA,NA,"https://www.gem.wiki/Ballestas_solar_farm"
"2024/04/19","Spain","Balsicas solar farm","--",NA,NA,85.9,"MWac","PV","announced",NA,NA,NA,NA,"KPMG",NA,NA,"37.6127","-0.9882","approximate","Cartagena",NA,NA,"Murica","Southern Europe","Europe","L100001005614","G100001006730",NA,NA,"https://www.gem.wiki/Balsicas_solar_farm"
"2024/04/03","Spain","Baluarte solar farm","--","Planta solar fotovoltaica Baluarte Solar",NA,50,"MWp/dc","PV","pre-construction",NA,NA,"Baluarte Solar",NA,"Ignis Energía SL",NA,NA,"42.5723","-4.3783","approximate","Calahorra de Boedo",NA,"Palencia","Castilla y León","Southern Europe","Europe","L100001004641","G100001005445",NA,NA,"https://www.gem.wiki/Baluarte_solar_farm"
"2024/04/22","Spain","Baluma solar farm","--",NA,NA,62.5,"MWp/dc","PV","pre-construction",NA,NA,NA,NA,"Verbund AG",NA,NA,"37.2318","-3.6507","approximate","Albolote",NA,"Granada","Andalucia","Southern Europe","Europe","L100001005650","G100001006781",NA,NA,"https://www.gem.wiki/Baluma_solar_farm"
"2024/04/26","Spain","Baobab solar farm","--",NA,NA,85,"unknown","PV","announced",NA,NA,NA,NA,NA,NA,NA,"41.8594","-5.0766","approximate",NA,NA,NA,"Castile and León","Southern Europe","Europe","L100001007661","G100001008887",NA,NA,"https://www.gem.wiki/Baobab_solar_farm"
"2025/01/07","Spain","Barcience (Aquila Clean Energy) solar farm","--","Planta solar fotovoltaica Barcience",NA,29.9,"MWp/dc","PV","construction",NA,NA,NA,NA,"Aquila Clean Energy",NA,NA,"39.9660","-4.2300","approximate","Barcience",NA,"Toledo","Castilla-La Mancha","Southern Europe","Europe","L100000824379","G100000827498",NA,NA,"https://www.gem.wiki/Barcience_(Aquila_Clean_Energy)_solar_farm"
"2023/01/11","Spain","Barcience solar farm","1",NA,NA,50,"MWac","PV","operating",2021,NA,"Iberdrola Renovables Energia",NA,"Iberdrola SA",NA,NA,"39.9230","-4.0880","exact","Bargas",NA,NA,"Toledo","Southern Europe","Europe","L100000805878","G100000806763",NA,"WKSL: WKSL: 74695","https://www.gem.wiki/Barcience_solar_farm"
"2024/03/06","Spain","Barcina Garoña Vega solar farm","1","Planta solar fotovoltaica Barcina Garoña Vega I, Planta solar fotovoltaica Barcina Garoña Vega",NA,57.5,"MWac","PV","pre-construction",NA,NA,NA,NA,"Vega Lyra Promociones Fotovoltaicas SL",NA,NA,"42.7984","-3.2360","approximate","Valle de Tobalina",NA,"Burgos","Castilla y León","Southern Europe","Europe","L100001003735","G100001004261",NA,NA,"https://www.gem.wiki/Barcina_Garoña_Vega_solar_farm"
"2024/03/06","Spain","Barcina Garoña Vega solar farm","2","Planta solar fotovoltaica Barcina Garoña Vega II, Planta solar fotovoltaica Barcina Garoña Vega",NA,57,"MWac","PV","pre-construction",NA,NA,NA,NA,"Vega Lyra Promociones Fotovoltaicas SL",NA,NA,"42.7984","-3.2360","approximate","Valle de Tobalina",NA,"Burgos","Castilla y León","Southern Europe","Europe","L100001003735","G100001004262",NA,NA,"https://www.gem.wiki/Barcina_Garoña_Vega_solar_farm"
"2024/02/01","Spain","Bargas (Aragón) solar farm","--","Planta fotovoltaica Bargas Solar",NA,50,"MWp/dc","PV","pre-construction",NA,NA,NA,NA,"Merfonda Solar SL",NA,NA,"41.7693","-1.4222","approximate","Pozuelo de Aragón",NA,"Zaragoza","Aragón","Southern Europe","Europe","L100001000643","G100001000964",NA,NA,"https://www.gem.wiki/Bargas_(Aragón)_solar_farm"
"2023/01/11","Spain","Bargas (Castilla-La Mancha) solar farm","1","Planta solar Bargas",NA,50,"MWac","PV","operating",2020,NA,"Solarpack",NA,"Aventron AG",NA,NA,"39.9178","-4.1168","exact","Bargas","La Sagra","Toledo","Castile-La Mancha","Southern Europe","Europe","L100000805991","G100000806896",NA,"PRETOR: RE-113104,WKSL: WKSL: 74169","https://www.gem.wiki/Bargas_(Castilla-La_Mancha)_solar_farm"
"2024/03/18","Spain","Barranco del Tollo solar farm","--","Planta fotovoltaica Barranco del Tollo",NA,165.8,"MWp/dc","PV","pre-construction",NA,NA,NA,NA,"Nara Solar SL",NA,NA,"41.7975","-1.2235","approximate","Pedrola",NA,"Zaragoza","Aragón","Southern Europe","Europe","L100000824380","G100000827499",NA,NA,"https://www.gem.wiki/Barranco_del_Tollo_solar_farm"
"2024/04/12","Spain","Barranquilla solar farm","--",NA,NA,50,"MWp/dc","PV","pre-construction",NA,NA,NA,NA,"Energía Barranquilla",NA,NA,"39.6146","-2.1043","approximate","Olmedilla",NA,"Cuenca","Castilla-La Mancha","Southern Europe","Europe","L100001005379","G100001006416",NA,NA,"https://www.gem.wiki/Barranquilla_solar_farm"
"2024/01/29","Spain","Barrica solar farm","Calamocha 1","Parque fotovoltaico Calamocha I, Proyecto solar Barrica","Calamocha 1, Escucha 1",49.5,"MWp/dc","PV","operating",2022,NA,"Fuerzas Energéticas del Sur de Europa",NA,"Lightsource BP",NA,NA,"40.9029","-1.2767","exact","Calamocha",NA,"Teruel","Aragón","Southern Europe","Europe","L100000806566","G100000807532",NA,"PRETOR: RE-113292","https://www.gem.wiki/Barrica_solar_farm"
"2024/01/29","Spain","Barrica solar farm","Escucha 1","Parque fotovoltaico Escucha I, Proyecto solar Barrica","Calamocha 1, Escucha 1",49.5,"MWp/dc","PV","operating",2023,NA,"Modelos Energéticos Sostenibles",NA,"Lightsource BP",NA,NA,"40.7095","-0.8472","exact","Cuevas de Almudén",NA,"Teruel","Aragón","Southern Europe","Europe","L100000806566","G100000807533",NA,"PRETOR: RE-113295","https://www.gem.wiki/Barrica_solar_farm"
"2024/02/09","Spain","Batea solar farm","--","Planta solar fotovoltaica Batea",NA,29.5,"MWac","PV","pre-construction",NA,NA,NA,NA,"Energía Inagotable del Proyecto Batea SL",NA,NA,"41.1131","0.3532","approximate","Batea","Terra Alta","Tarragona","Cataluña","Southern Europe","Europe","L100001000862","G100001001219",NA,NA,"https://www.gem.wiki/Batea_solar_farm"
"2024/03/18","Spain","Baten solar farm","--","Parque fotovoltaico Baten",NA,49.5,"MWac","PV","pre-construction",NA,NA,"Energía Inagotable de Baten",NA,"Forestalia SL",NA,NA,"41.4980","0.3229","approximate","Fraga",NA,"Huesca","Aragón","Southern Europe","Europe","L100000824381","G100000827501",NA,NA,"https://www.gem.wiki/Baten_solar_farm"
"2023/01/18","Spain","Belinchón solar farm","Belidos",NA,NA,50,"MWp/dc","PV","operating",NA,NA,NA,NA,"Grenergy",NA,NA,"40.0678","-2.9667","exact",NA,NA,"Cuenca","Castile-La Mancha","Southern Europe","Europe","L100000824382","G100000827502",NA,NA,"https://www.gem.wiki/Belinchón_solar_farm"
"2023/01/18","Spain","Belinchón solar farm","Belitres",NA,NA,50,"MWp/dc","PV","operating",NA,NA,NA,NA,"Grenergy",NA,NA,"40.0678","-2.9667","exact",NA,NA,"Cuenca","Castile-La Mancha","Southern Europe","Europe","L100000824382","G100000827503",NA,NA,"https://www.gem.wiki/Belinchón_solar_farm"
"2023/01/18","Spain","Belinchón solar farm","Beliuno",NA,NA,50,"MWp/dc","PV","operating",NA,NA,NA,NA,"Grenergy",NA,NA,"40.0678","-2.9667","exact",NA,NA,"Cuenca","Castile-La Mancha","Southern Europe","Europe","L100000824382","G100000827504",NA,NA,"https://www.gem.wiki/Belinchón_solar_farm"
"2024/02/13","Spain","Bellisens solar farm","--","Planta solar fotovoltaica Bellisens",NA,45.6,"MWac","PV","pre-construction",NA,NA,NA,NA,"Celtis Solar SL",NA,NA,"41.1576","1.2101","approximate","Constantí","Tarragonès","Tarragona","Cataluña","Southern Europe","Europe","L100001000967","G100001001334",NA,NA,"https://www.gem.wiki/Bellisens_solar_farm"
"2024/04/02","Spain","Belorado solar farm","--","Planta solar fotovoltaica Belorado",NA,50,"MWac","PV","pre-construction",NA,NA,"Alfa Lirae PV7",NA,"LAMARQUES-AZ SL",NA,NA,"42.4289","-3.1791","approximate","Belorado",NA,"Burgos","Castilla y León","Southern Europe","Europe","L100001004618","G100001005421",NA,NA,"https://www.gem.wiki/Belorado_solar_farm"
"2024/12/06","Spain","Belvis solar farm","1",NA,NA,45.5,"MWac","PV","construction",2025,NA,"China Three Gorges CORP (CTG)","中国长江三峡集团有限公司","China Three Gorges CORP (CTG)","中国长江三峡集团有限公司",NA,"39.4710","-6.3846","approximate","Cáceres",NA,"Cáceres","Extremadura","Southern Europe","Europe","L100000824383","G100000827505",NA,NA,"https://www.gem.wiki/Belvis_solar_farm"
"2024/03/07","Spain","Belvis solar farm","2",NA,NA,45.5,"MWac","PV","construction",2025,NA,"China Three Gorges CORP (CTG)","中国长江三峡集团有限公司","China Three Gorges CORP (CTG)","中国长江三峡集团有限公司",NA,"39.4710","-6.3846","approximate","Cáceres",NA,"Cáceres","Extremadura","Southern Europe","Europe","L100000824383","G100000827506",NA,NA,"https://www.gem.wiki/Belvis_solar_farm"
"2024/04/23","Spain","Beneixama (Hive Energy) solar farm","--",NA,NA,53,"unknown","Assumed PV","announced",NA,NA,NA,NA,"Hive Energy",NA,NA,"38.6288","-0.7653","approximate","Biar",NA,NA,"Alicante","Southern Europe","Europe","L100001007564","G100001008719",NA,NA,"https://www.gem.wiki/Beneixama_(Hive_Energy)_solar_farm"
"2021/08/09","Spain","Beneixama Solar PV Park","1",NA,"Vinalopo, Sol de Vinalopo",20,"unknown","PV","cancelled - inferred 4 y",NA,NA,"City Solar",NA,"Eolia Renovables SA (EOLIASUR)",NA,NA,"38.7191","-0.7225","exact","Beneixama",NA,"Alacant / Alicante","Valencian Community","Southern Europe","Europe","L100000805739","G100000806606",NA,NA,"https://www.gem.wiki/Beneixama_Solar_PV_Park"
"2024/04/15","Spain","Betierra solar farm","Betierra 1",NA,"Betierra 3, Betierra 2, Betierra 1",50,"MWp/dc","PV","pre-construction",NA,NA,NA,NA,"Sonnedix",NA,NA,"40.0484","-3.0580","approximate","Belinchón",NA,"Cuenca","Castilla-La Mancha","Southern Europe","Europe","L100001005481","G100001006525",NA,NA,"https://www.gem.wiki/Betierra_solar_farm"
"2024/04/15","Spain","Betierra solar farm","Betierra 2",NA,"Betierra 3, Betierra 2, Betierra 1",50,"MWp/dc","PV","pre-construction",NA,NA,NA,NA,"Sonnedix",NA,NA,"40.0484","-3.0580","approximate","Belinchón",NA,"Cuenca","Castilla-La Mancha","Southern Europe","Europe","L100001005481","G100001006526",NA,NA,"https://www.gem.wiki/Betierra_solar_farm"
"2024/04/15","Spain","Betierra solar farm","Betierra 3",NA,"Betierra 3, Betierra 2, Betierra 1",50,"MWp/dc","PV","pre-construction",NA,NA,NA,NA,"Sonnedix",NA,NA,"40.0484","-3.0580","approximate","Belinchón",NA,"Cuenca","Castilla-La Mancha","Southern Europe","Europe","L100001005481","G100001006527",NA,NA,"https://www.gem.wiki/Betierra_solar_farm"
"2023/01/10","Spain","Beturia solar farm","1",NA,NA,50,"MWp/dc","PV","operating",2021,NA,"Enel Green Power",NA,"Endesa SA",NA,NA,"38.1590","-6.5906","approximate","Fregenal de la Sierra",NA,NA,"Badajoz","Southern Europe","Europe","L100000805781","G100000806655",NA,"PRETOR: RE-113522","https://www.gem.wiki/Beturia_solar_farm"
"2024/03/18","Spain","Bianca solar farm","--","Parque fotovoltaico Bianca",NA,49.5,"MWac","PV","pre-construction",NA,NA,"Energía Inagotable de Bianca",NA,"Forestalia SL",NA,NA,"41.5811","0.2127","approximate","Ballobar",NA,"Huesca","Aragón","Southern Europe","Europe","L100000824384","G100000827508",NA,NA,"https://www.gem.wiki/Bianca_solar_farm"
"2024/02/13","Spain","Biar solar farm","--","Planta solar fotovoltaica Biar",NA,45.5,"unknown","PV","pre-construction",NA,NA,NA,NA,"Iberdrola SA",NA,NA,"38.3516","-0.4900","approximate","Alicante",NA,"Alacant / Alicante","Valencian Community","Southern Europe","Europe","L100000824385","G100000827509",NA,NA,"https://www.gem.wiki/Biar_solar_farm"
"2024/02/13","Spain","Bibey solar farm","--","Planta solar fotovoltaica Bibey",NA,58.8,"MWp/dc","PV","pre-construction",NA,NA,"Bibey Desarrollo Empresarial",NA,"Atitlan Helios",NA,NA,"38.0843","-0.9467","approximate","Orihuela","el Baix Segura / La Vega Baja del Segura","Alacant / Alicante","Valencian Community","Southern Europe","Europe","L100000824386","G100000827510",NA,NA,"https://www.gem.wiki/Bibey_solar_farm"
"2024/03/13","Spain","Bichero solar farm","--","Parque solar fotovoltaico Bichero Solar",NA,64.5,"MWac","PV","pre-construction",NA,NA,"Bichero Solar",NA,"Ignis Energía SL",NA,NA,"40.6574","-3.1520","approximate","Guadalajara",NA,"Guadalajara","Castilla–La Mancha","Southern Europe","Europe","L100000824387","G100000827511",NA,NA,"https://www.gem.wiki/Bichero_solar_farm"
"2023/01/11","Spain","Bienvenida solar farm","1",NA,"Bienvenida PV",180,"MWp/dc","PV","operating",2021,NA,"ib vogt gmbH",NA,"Talanx Group",NA,NA,"38.2830","-6.1610","approximate","Bienvenida",NA,NA,"Badajoz","Southern Europe","Europe","L100000805856","G100000806738","WKSL: WKSL: 61429","PRETOR: RE-113196","https://www.gem.wiki/Bienvenida_solar_farm"
"2024/04/02","Spain","Bierzo solar farm","1","Bierzo, Planta solar fotovoltaica Bierzo",NA,50,"MWp/dc","PV","pre-construction",NA,NA,"Camanal Energía",NA,"Resolar",NA,NA,"42.5185","-5.9451","approximate","Benavides",NA,"León","Castilla y León","Southern Europe","Europe","L100001004602","G100001005399",NA,NA,"https://www.gem.wiki/Bierzo_solar_farm"
"2024/04/02","Spain","Bierzo solar farm","3","Bierzo 3, Planta solar fotovoltaica Bierzo",NA,50,"MWp/dc","PV","pre-construction",NA,NA,"Alfavat Soluciones Energéticas",NA,"Resolar",NA,NA,"42.6358","-6.0369","approximate","Quintana del Castillo",NA,"León","Castilla y León","Southern Europe","Europe","L100001004602","G100001005400",NA,NA,"https://www.gem.wiki/Bierzo_solar_farm"
"2024/04/19","Spain","Bisbita solar farm","--",NA,NA,100,"MWp/dc","PV","pre-construction",NA,NA,NA,NA,"Grenergy",NA,NA,"40.8398","-3.4901","approximate","Torremocha",NA,NA,"Madrid","Southern Europe","Europe","L100001005603","G100001006711",NA,NA,"https://www.gem.wiki/Bisbita_solar_farm"
"2024/04/02","Spain","Bobadilla solar farm","--",NA,NA,348,"MWp/dc","PV","pre-construction",NA,NA,"Eyre Sun",NA,NA,NA,NA,"37.0322","-4.7389","exact",NA,"Antequera","Malaga","Andalusia","Southern Europe","Europe","L100000824389","G100000827513",NA,NA,"https://www.gem.wiki/Bobadilla_solar_farm"
"2024/04/03","Spain","Boedo solar farm","1","Boedo 1, Planta solar fotovoltaica Boedo",NA,40.5,"MWac","PV","pre-construction",NA,NA,"Bolero Energy",NA,"Q Energy",NA,NA,"42.6591","-4.3202","approximate","Alar del Rey",NA,"Palencia","Castilla y León","Southern Europe","Europe","L100001004631","G100001005434",NA,NA,"https://www.gem.wiki/Boedo_solar_farm"
"2024/04/02","Spain","Boedo solar farm","2","Boedo 2, Planta solar fotovoltaica Boedo",NA,42.2,"MWac","PV","pre-construction",NA,NA,"Vals Energy Power",NA,"Q Energy",NA,NA,"42.6591","-4.3202","approximate","Alar del Rey",NA,"Palencia","Castilla y León","Southern Europe","Europe","L100001004631","G100001005432",NA,NA,"https://www.gem.wiki/Boedo_solar_farm"
"2024/03/26","Spain","Bolardo solar farm","--","Planta fotovoltaica Bolardo Solar",NA,67.5,"MWac","PV","pre-construction",NA,NA,"Bolardo Solar",NA,"Bolardo Solar SL",NA,NA,"40.5431","-3.1017","approximate","Yebes",NA,"Guadalajara","Castilla-La Mancha","Southern Europe","Europe","L100000824390","G100000827514",NA,NA,"https://www.gem.wiki/Bolardo_solar_farm"
"2023/01/24","Spain","Bolarque solar farm","1",NA,NA,50,"MWp/dc","PV","operating",2022,NA,"Acciona",NA,"Acciona SA",NA,NA,"40.3336","-2.6302","exact",NA,NA,"Cuenca","Castile-La Mancha","Southern Europe","Europe","L100000824391","G100000827515",NA,NA,"https://www.gem.wiki/Bolarque_solar_farm"
"2024/04/03","Spain","Bombarda solar farm","--","Planta solar fotovoltaica Bombarda Solar",NA,40,"MWac","PV","pre-construction",NA,NA,"Bombarda Solar",NA,"Ignis Energía SL",NA,NA,"42.5818","-4.3763","approximate","Calahorra de Boedo",NA,"Palencia","Castilla y León","Southern Europe","Europe","L100001004643","G100001005447",NA,NA,"https://www.gem.wiki/Bombarda_solar_farm"
"2023/01/12","Spain","Bonete solar farm","2",NA,NA,49.9,"MWp/dc","PV","operating",2019,NA,NA,NA,NA,NA,NA,"38.8559","-1.3030","exact","Bonete",NA,NA,NA,"Southern Europe","Europe","L100000824392","G100000827516",NA,"PRETOR: RE-113015","https://www.gem.wiki/Bonete_solar_farm"
"2023/01/12","Spain","Bonete solar farm","3",NA,NA,46.4,"MWp/dc","PV","operating",2019,NA,NA,NA,NA,NA,NA,"38.8379","-1.3087","approximate","Bonete",NA,NA,NA,"Southern Europe","Europe","L100000824392","G100000827517",NA,"PRETOR: RE-113016","https://www.gem.wiki/Bonete_solar_farm"
"2023/01/12","Spain","Bonete solar farm","4",NA,NA,44.4,"MWp/dc","PV","operating",2019,NA,NA,NA,NA,NA,NA,"38.8443","-1.3120","exact","Bonete",NA,NA,NA,"Southern Europe","Europe","L100000824392","G100000827518",NA,"PRETOR: RE-113017","https://www.gem.wiki/Bonete_solar_farm"
"2023/01/11","Spain","Borges CSP solar farm","--",NA,NA,24.2,"MWac","Solar Thermal","operating",2012,NA,NA,NA,"Abantia Group; Comsa Medio Ambiente SA",NA,NA,"41.5292","0.8001","exact",NA,"Garrigues","Lleida","Catalonia","Southern Europe","Europe","L100000824393","G100000827519",NA,"PRETOR: RE-110045","https://www.gem.wiki/Borges_CSP_solar_farm"
"2024/04/22","Spain","Boyante solar farm","--",NA,NA,62.5,"MWp/dc","PV","pre-construction",NA,NA,NA,NA,"Verbund AG",NA,NA,"37.2286","-3.6490","approximate","Albolote",NA,"Granada","Andalucía","Southern Europe","Europe","L100001005649","G100001006780",NA,NA,"https://www.gem.wiki/Boyante_solar_farm"
"2024/04/15","Spain","Braza Cordel solar farm","--",NA,NA,32,"MWp/dc","PV","pre-construction",NA,NA,NA,NA,"Hanwha Corp","(주)한화",NA,"38.6617","-4.2972","approximate","Brazatortas",NA,"Ciudad Real","Castilla-La Mancha","Southern Europe","Europe","L100001005477","G100001006517",NA,NA,"https://www.gem.wiki/Braza_Cordel_solar_farm"
"2024/04/15","Spain","Braza Corona solar farm","--",NA,NA,50,"MWp/dc","PV","pre-construction",NA,NA,NA,NA,"Hanwha Energy Corp","한화에너지",NA,"38.6588","-4.2928","approximate","Brazatortas",NA,"Ciudad Real","Castilla-La Mancha","Southern Europe","Europe","L100001005475","G100001006515",NA,NA,"https://www.gem.wiki/Braza_Corona_solar_farm"
"2025/01/06","Spain","Brazatortas (Q Energy) solar farm","--",NA,NA,38.3,"unknown","PV","announced",NA,NA,NA,NA,NA,NA,NA,"38.6593","-4.2941","approximate","Brazatortas",NA,"Ciudad Real","Castilla-La Mancha","Southern Europe","Europe","L100001005687","G100001006833",NA,NA,"https://www.gem.wiki/Brazatortas_(Q_Energy)_solar_farm"
"2024/04/12","Spain","Brazatortas-Rotonda solar farm","1",NA,NA,32.9,"unknown","PV","pre-construction",NA,NA,NA,NA,"Renovables Rotonda",NA,NA,"38.6595","-4.2937","approximate","Brazatortas",NA,NA,NA,"Southern Europe","Europe","L100001005353","G100001006381",NA,NA,"https://www.gem.wiki/Brazatortas-Rotonda_solar_farm"
"2024/04/12","Spain","Brazatortas-Rotonda solar farm","2",NA,NA,32.9,"unknown","PV","pre-construction",NA,NA,NA,NA,"Renovables Rotonda",NA,NA,"38.6595","-4.2937","approximate","Brazatortas",NA,NA,NA,"Southern Europe","Europe","L100001005353","G100001006382",NA,NA,"https://www.gem.wiki/Brazatortas-Rotonda_solar_farm"
"2024/04/02","Spain","Broza solar farm","--",NA,NA,50,"MWp/dc","PV","pre-construction",NA,NA,NA,NA,"Ignis Energía SL",NA,NA,"40.5718","-3.2918","approximate",NA,"Cuenca del Medio Jarama",NA,"Community of Madrid","Southern Europe","Europe","L100000824394","G100000827520",NA,NA,"https://www.gem.wiki/Broza_solar_farm"
"2024/03/13","Spain","Bruma solar farm","--","Parque solar fotovoltaico Bruma Solar",NA,70,"MWac","PV","pre-construction",NA,NA,"Bruma Solar",NA,"Ignis Energía SL",NA,NA,"40.4736","-3.2862","approximate","Anchuelo",NA,"Madrid","Comunidad de Madrid","Southern Europe","Europe","L100000824395","G100000827521",NA,NA,"https://www.gem.wiki/Bruma_solar_farm"
"2023/02/02","Spain","Budweiser solar farm","1",NA,"Illora Solar, Verbund Pinos Puente",74,"unknown","PV","operating",NA,NA,"BayWa R.E.",NA,"BayWa R.E. AG",NA,NA,"39.3261","-4.8380","approximate",NA,NA,"Badajoz","Extremadura","Southern Europe","Europe","L100000805711","G100000806572","WKSL: WKSL: 83870",NA,"https://www.gem.wiki/Budweiser_solar_farm"
"2023/02/02","Spain","Budweiser solar farm","2",NA,"Illora Solar, Verbund Pinos Puente",74,"unknown","PV","operating",NA,NA,"BayWa R.E.",NA,"BayWa R.E. AG",NA,NA,"39.3261","-4.8380","approximate",NA,NA,"Badajoz","Extremadura","Southern Europe","Europe","L100000805711","G100000806573","WKSL: WKSL: 83870",NA,"https://www.gem.wiki/Budweiser_solar_farm"
"2024/03/21","Spain","Buendía solar farm","--",NA,NA,291.5,"MWp/dc","PV","pre-construction",NA,NA,NA,NA,"Ric Sun Energy",NA,NA,"39.6111","-2.7904","approximate",NA,NA,NA,"Castilla-La Mancha","Southern Europe","Europe","L100000824396","G100000827522",NA,NA,"https://www.gem.wiki/Buendía_solar_farm"
"2023/01/17","Spain","CFS Alarcos solar farm","--",NA,NA,49.9,"MWp/dc","PV","operating",2019,NA,NA,NA,"China Three Gorges CORP (CTG)","中国长江三峡集团有限公司",NA,"38.8571","-4.0814","approximate",NA,"Campo de Calatrava","Ciudad Real","Castile-La Mancha","Southern Europe","Europe","L100000824455","G100000827600",NA,"PRETOR: RE-113000","https://www.gem.wiki/CFS_Alarcos_solar_farm"
"2024/03/07","Spain","CS Badajoz solar farm","4","Planta solar fotovoltaica CS Badajoz 4",NA,45.6,"MWac","PV","pre-construction",NA,NA,"Renopool 1",NA,"Renopool 1 SL",NA,NA,"38.8777","-6.9798","approximate","Badajoz",NA,"Badajoz","Extremadura","Southern Europe","Europe","L100000824481","G100000827634",NA,NA,"https://www.gem.wiki/CS_Badajoz_solar_farm"
"2024/04/26","Spain","CSF Carril XE solar farm","--",NA,NA,43.9,"MWac","PV","operating",NA,NA,NA,NA,NA,NA,NA,"38.0657","-1.6670","approximate",NA,NA,NA,"Murcia","Southern Europe","Europe","L100001007674","G100001008901",NA,"WKSL: WKSL: 82463","https://www.gem.wiki/CSF_Carril_XE_solar_farm"
"2023/01/31","Spain","CSF Continua Anguita solar farm","--",NA,NA,93,"MWp/dc","PV","operating",2021,NA,"Continua Energías Positivas",NA,"Continua Energías Positivas",NA,NA,"41.0273","-2.3700","approximate",NA,NA,"Guadalajara","Castile-La Mancha","Southern Europe","Europe","L100000824482","G100000827635",NA,NA,"https://www.gem.wiki/CSF_Continua_Anguita_solar_farm"
"2024/04/17","Spain","Cabra 0 solar farm","--",NA,NA,226.4,"MWac","PV","pre-construction",NA,NA,NA,NA,"Tentusol",NA,NA,"37.6484","-4.6981","approximate","Montemayor",NA,"Córdoba","Andalucía","Southern Europe","Europe","L100001005542","G100001006607",NA,NA,"https://www.gem.wiki/Cabra_0_solar_farm"
"2024/03/26","Spain","Cabrero solar farm","--",NA,NA,150,"MWp/dc","PV","pre-construction",NA,NA,"Veleta Power",NA,NA,NA,NA,"39.6111","-2.7904","approximate",NA,NA,NA,"Castilla-La Mancha","Southern Europe","Europe","L100000824397","G100000827523",NA,NA,"https://www.gem.wiki/Cabrero_solar_farm"
"2023/01/11","Spain","Cadima solar farm","1",NA,NA,40,"MWp/dc","PV","operating",2019,NA,"Eiffage Énergie Systèmes",NA,"X-Elio",NA,NA,"36.9860","-2.0430","approximate","Lucainena de las Torres",NA,NA,"Almería","Southern Europe","Europe","L100000805766","G100000806635",NA,"PRETOR: RE-112997,WKSL: WKSL: 82462","https://www.gem.wiki/Cadima_solar_farm"
"2024/04/02","Spain","Cadiz (Euder Energy) solar farm","1",NA,NA,26,"MWp/dc","PV","announced",NA,NA,"Euder Energy",NA,"Euder Energy SL",NA,NA,"36.5185","-6.2777","approximate","Cádiz","Bay of Cádiz","Cádiz","Andalusia","Southern Europe","Europe","L100000824401","G100000827527",NA,NA,"https://www.gem.wiki/Cadiz_(Euder_Energy)_solar_farm"
"2024/04/02","Spain","Cadiz (Euder Energy) solar farm","2",NA,NA,26,"MWp/dc","PV","announced",NA,NA,"Euder Energy",NA,"Euder Energy SL",NA,NA,"36.5185","-6.2777","approximate","Cádiz","Bay of Cádiz","Cádiz","Andalusia","Southern Europe","Europe","L100000824401","G100000827528",NA,NA,"https://www.gem.wiki/Cadiz_(Euder_Energy)_solar_farm"
"2024/04/23","Spain","Caelum 4 solar farm","--",NA,NA,119.2,"MWp/dc","PV","pre-construction",NA,NA,NA,NA,"TotalEnergies SE",NA,NA,"42.4318","-5.3706","approximate","Santas Martas",NA,NA,"Castilla y León","Southern Europe","Europe","L100001007561","G100001008714",NA,NA,"https://www.gem.wiki/Caelum_4_solar_farm"
"2024/01/29","Spain","Calamocha 2 solar farm","--","Parque fotovoltaico Calamocha II","Proyecto Vendimia",49.5,"MWp/dc","PV","operating",2021,NA,"Fuerzas Energéticas del Sur de Europa IV",NA,"Plenium Partners ; Bankinter",NA,NA,"41.2594","-0.5386","exact","Almochuel",NA,"Zaragoza","Aragón","Southern Europe","Europe","L100001000582","G100001000889",NA,NA,"https://www.gem.wiki/Calamocha_2_solar_farm"
"2024/04/26","Spain","Calasparra solar farm","--",NA,NA,22.3,"MWp/dc","PV","operating",NA,NA,NA,NA,NA,NA,NA,"38.2635","-1.6817","exact",NA,NA,NA,"Murcia","Southern Europe","Europe","L100001007672","G100001008898",NA,"WKSL: WKSL: 60054","https://www.gem.wiki/Calasparra_solar_farm"
"2023/01/31","Spain","Calatrava 1 solar farm","--",NA,"Cluster Calatrava",22.3,"unknown","PV","operating",2022,NA,"Enel Green Power",NA,"Enel Green Power SpA",NA,NA,"38.9935","-3.3951","approximate",NA,"La Mancha","Ciudad Real","Castile-La Mancha","Southern Europe","Europe","L100000824402","G100000827529",NA,NA,"https://www.gem.wiki/Calatrava_1_solar_farm"
"2024/11/19","Spain","Calatrava 2 solar farm","--",NA,NA,50,"MWp/dc","PV","operating",2024,NA,"Lantania",NA,"Verbund AG",NA,NA,"38.8770","-3.8675","approximate","Campo de Calatrava",NA,"Ciudad Real","Castilla-La Mancha","Southern Europe","Europe","L100001005690","G100001006836",NA,NA,"https://www.gem.wiki/Calatrava_2_solar_farm"
"2021/08/09","Spain","Calaveron Solar solar farm","1",NA,NA,21,"MWp/dc","PV","operating",2008,NA,"Eiffage Énergie Systèmes",NA,"EPURON",NA,NA,"39.3269","-2.5292","exact",NA,NA,"Cuenca","Castile-La Mancha","Southern Europe","Europe","L100000805764","G100000806633","WKSL: WKSL: 60045","WKSL: WKSL: 60045","https://www.gem.wiki/Calaveron_Solar_solar_farm"
"2024/02/09","Spain","Calders solar farm","--","Planta solar fotovoltaica Calders",NA,20,"MWac","PV","pre-construction",NA,NA,NA,NA,"Meroil Sun Light 3 SLU",NA,NA,"41.7915","1.9886","approximate","Calders","Moianès","Barcelona","Cataluña","Southern Europe","Europe","L100001000900","G100001001261",NA,NA,"https://www.gem.wiki/Calders_solar_farm"
"2024/03/26","Spain","Callejas solar farm","--","Planta solar fotovoltaica Callejas",NA,49.5,"MWac","PV","pre-construction",NA,NA,NA,NA,"Iberdrola Renovables Castilla-La Mancha SA",NA,NA,"39.6330","-1.8060","approximate","Campillo de Altobuey",NA,"Cuenca","Castilia-La Mancha","Southern Europe","Europe","L100001004297","G100001005016",NA,NA,"https://www.gem.wiki/Callejas_solar_farm"
"2024/03/27","Spain","Calzadilla (Iberenova) solar farm","--",NA,NA,148.9,"MWp/dc","PV","pre-construction",NA,NA,"Iberenova Promociones",NA,NA,NA,NA,"38.7910","-5.6362","approximate",NA,NA,NA,"Extremadura","Southern Europe","Europe","L100000824403","G100000827530",NA,NA,"https://www.gem.wiki/Calzadilla_(Iberenova)_solar_farm"
"2024/02/23","Spain","Calzadilla (Statkraft) solar farm","--","Planta solar fotovoltaica Calzadilla (Statkraft)","Complejo Zajuril",114,"unknown","PV","announced",NA,NA,"Proyecto Fotovoltaico Calzadilla",NA,"Statkraft AS",NA,NA,"40.0534","-6.5474","approximate","Calzadilla",NA,"Cáceres","Extremadura","Southern Europe","Europe","L100001003179","G100001003645",NA,NA,"https://www.gem.wiki/Calzadilla_(Statkraft)_solar_farm"
"2021/08/09","Spain","Calzadilla (Valsolar) solar farm","1",NA,"Calzadilla II (Phase 2), Calzadilla I (Phase 1), Calzadilla III (Phase 3)",50,"unknown","PV","cancelled",NA,NA,"Valsolar S.L. Energías Renovables",NA,"SAG Solarstorm AG",NA,NA,"38.3011","-6.3167","approximate","Calzadilla de los Barros",NA,NA,"Badajoz","Southern Europe","Europe","L100000806017","G100000806926",NA,NA,"https://www.gem.wiki/Calzadilla_(Valsolar)_solar_farm"
"2021/08/09","Spain","Calzadilla (Valsolar) solar farm","2",NA,"Calzadilla II (Phase 2), Calzadilla I (Phase 1), Calzadilla III (Phase 3)",120,"unknown","PV","cancelled",NA,NA,"Valsolar S.L. Energías Renovables",NA,"SAG Solarstorm AG",NA,NA,"38.3011","-6.3167","approximate","Calzadilla de los Barros",NA,NA,"Badajoz","Southern Europe","Europe","L100000806017","G100000806927",NA,NA,"https://www.gem.wiki/Calzadilla_(Valsolar)_solar_farm"
"2021/08/09","Spain","Calzadilla (Valsolar) solar farm","3",NA,"Calzadilla II (Phase 2), Calzadilla I (Phase 1), Calzadilla III (Phase 3)",75,"unknown","PV","cancelled",NA,NA,"Valsolar S.L. Energías Renovables",NA,"SAG Solarstorm AG",NA,NA,"38.3011","-6.3167","approximate","Calzadilla de los Barros",NA,NA,"Badajoz","Southern Europe","Europe","L100000806017","G100000806928",NA,NA,"https://www.gem.wiki/Calzadilla_(Valsolar)_solar_farm"
"2024/03/20","Spain","Camarillas solar farm","--",NA,NA,150,"MWp/dc","PV","announced",NA,NA,"San Isidro Solar 7",NA,NA,NA,NA,"41.3473","-0.7809","approximate",NA,NA,NA,"Aragón","Southern Europe","Europe","L100000824404","G100000827531",NA,NA,"https://www.gem.wiki/Camarillas_solar_farm"
"2024/04/02","Spain","Camino Fregacedos solar farm","1",NA,NA,350,"MWp/dc","PV","announced",NA,NA,"Solaria Energía y Medio Ambiente",NA,"Solaria Energía y Medio Ambiente SA",NA,NA,"39.6209","-4.4892","approximate",NA,NA,"Toledo","Castilla-La Mancha","Southern Europe","Europe","L100000805988","G100000806893",NA,NA,"https://www.gem.wiki/Camino_Fregacedos_solar_farm"
"2024/03/21","Spain","Campanario (Bahía de Plata) solar farm","--",NA,NA,106.7,"MWp/dc","PV","pre-construction",NA,NA,"Bahía de Plata State 2017",NA,NA,NA,NA,"39.6111","-2.7904","approximate",NA,NA,NA,"Castilla-La Mancha","Southern Europe","Europe","L100000824405","G100000827532",NA,NA,"https://www.gem.wiki/Campanario_(Bahía_de_Plata)_solar_farm"
"2023/01/12","Spain","Campanario (Elawan) solar farm","1",NA,"Elawan Campanario (Phase 1)",39.7,"MWp/dc","PV","operating",2020,NA,NA,NA,"Elawan Energy SL",NA,NA,"38.8465","-1.3001","exact",NA,NA,"Albacete","Castile-La Mancha","Southern Europe","Europe","L100000824406","G100000827533",NA,"PRETOR: RE-113095","https://www.gem.wiki/Campanario_(Elawan)_solar_farm"
"2023/01/12","Spain","Campanario (Elawan) solar farm","2",NA,"Elawan Campanario (Phase 1)",48.1,"MWp/dc","PV","operating",2021,NA,"Elawan Energy",NA,"Elawan Energy SL",NA,NA,"38.9010","-1.3291","exact",NA,NA,"Albacete","Castile-La Mancha","Southern Europe","Europe","L100000824406","G100000827534",NA,"PRETOR: RE-113483","https://www.gem.wiki/Campanario_(Elawan)_solar_farm"
"2023/01/12","Spain","Campanario (Elawan) solar farm","3",NA,"Elawan Campanario (Phase 1)",48.1,"MWp/dc","PV","operating",2021,NA,"Elawan Energy",NA,"Elawan Energy SL",NA,NA,"38.9310","-1.3078","exact",NA,NA,"Albacete","Castile-La Mancha","Southern Europe","Europe","L100000824406","G100000827535",NA,"PRETOR: RE-113430","https://www.gem.wiki/Campanario_(Elawan)_solar_farm"
"2023/01/12","Spain","Campanario (Elawan) solar farm","4",NA,"Elawan Campanario (Phase 1)",50,"MWp/dc","PV","operating",2021,NA,NA,NA,"Elawan Energy SL",NA,NA,"38.9094","-1.3366","exact",NA,NA,"Albacete","Castile-La Mancha","Southern Europe","Europe","L100000824406","G100000827536",NA,"PRETOR: RE-113578","https://www.gem.wiki/Campanario_(Elawan)_solar_farm"
"2023/01/11","Spain","Campanario (Elawan) solar farm","5",NA,"Elawan Campanario (Phase 1)",50,"MWp/dc","PV","operating",2021,NA,NA,NA,"Elawan Energy SL",NA,NA,"38.9103","-1.3199","exact",NA,NA,"Albacete","Castile-La Mancha","Southern Europe","Europe","L100000824406","G100000827537",NA,"PRETOR: RE-001365","https://www.gem.wiki/Campanario_(Elawan)_solar_farm"
"2024/04/24","Spain","Campanario (Planea Energia) solar farm","--",NA,NA,80,"unknown","PV","operating",2023,NA,NA,NA,"Planea Energia",NA,NA,"38.8713","-1.3466","approximate","Bonete",NA,"Albacete","Castilla-La Mancha","Southern Europe","Europe","L100001007589","G100001008759",NA,NA,"https://www.gem.wiki/Campanario_(Planea_Energia)_solar_farm"
"2024/03/07","Spain","Campo Arañuelo (Naturgy) solar farm","--",NA,NA,269.6,"MWac","PV","pre-construction",2026,NA,"Naturgy Energy Group",NA,"Naturgy Energy Group SA",NA,NA,"39.5266","-5.6307","approximate",NA,"Jara-Ibores","Cáceres","Extremadura","Southern Europe","Europe","L100000824408","G100000827539",NA,NA,"https://www.gem.wiki/Campo_Arañuelo_(Naturgy)_solar_farm"
"2021/08/09","Spain","Campo Arañuelo solar farm","1",NA,"Arañuelo II (Phase 2), Arañuelo I (Phase 1), Arañuelo III (Phase 3)",50,"MWp/dc","PV","operating",2021,NA,"Iberdrola Renovables Energia",NA,"Iberdrola SA",NA,NA,"39.8161","-5.6831","approximate","Almaraz",NA,NA,"Cáceres","Southern Europe","Europe","L100000805864","G100000806746",NA,NA,"https://www.gem.wiki/Campo_Arañuelo_solar_farm"
"2021/08/09","Spain","Campo Arañuelo solar farm","2",NA,"Arañuelo II (Phase 2), Arañuelo I (Phase 1), Arañuelo III (Phase 3)",50,"MWp/dc","PV","operating",2021,NA,"Iberdrola Renovables Energia",NA,"Iberdrola SA",NA,NA,"39.8161","-5.6831","approximate","Almaraz",NA,NA,"Cáceres","Southern Europe","Europe","L100000805864","G100000806747",NA,NA,"https://www.gem.wiki/Campo_Arañuelo_solar_farm"
"2023/01/18","Spain","Campo Arañuelo solar farm","3",NA,"Arañuelo II (Phase 2), Arañuelo I (Phase 1), Arañuelo III (Phase 3)",40,"MWp/dc","PV","operating",2021,NA,"Iberdrola Renovables Energia",NA,"Iberdrola SA",NA,NA,"39.7865","-5.7008","exact","Romangordo",NA,NA,"Cáceres","Southern Europe","Europe","L100000805864","G100000806749",NA,"PRETOR: RE-113470","https://www.gem.wiki/Campo_Arañuelo_solar_farm"
"2024/12/06","Spain","Campo de Arañuelo solar farm","--",NA,NA,300,"MWp/dc","PV","construction",2026,NA,"Naturgy Energy Group",NA,"Naturgy Energy Group SA",NA,NA,"38.7653","-6.5810","approximate",NA,NA,NA,"Extremadura","Southern Europe","Europe","L100000824409","G100000827540",NA,NA,"https://www.gem.wiki/Campo_de_Arañuelo_solar_farm"
"2024/04/19","Spain","Campos 115 solar farm","--",NA,NA,100,"MWac","PV","pre-construction",NA,NA,NA,NA,"Gestiona Energías Renovables",NA,NA,"38.0406","-1.3506","approximate","Campos del Río",NA,NA,"Murica","Southern Europe","Europe","L100001005609","G100001006721",NA,NA,"https://www.gem.wiki/Campos_115_solar_farm"
"2024/03/29","Spain","Campos 259 solar farm","--","Planta solar fotovoltaica Campos 259",NA,259,"MWp/dc","PV","pre-construction",NA,NA,"Gestiona Energías Renovables",NA,NA,NA,NA,"38.0428","-1.3635","approximate","Campos del Río",NA,"Murcia","Murcia","Southern Europe","Europe","L100000824410","G100000827541",NA,NA,"https://www.gem.wiki/Campos_259_solar_farm"
"2024/03/29","Spain","Campos Salados solar farm","--","Planta solar fotovoltaica Campos Salados",NA,90.5,"MWp/dc","PV","pre-construction",NA,NA,NA,NA,"Renantis UK Ltd",NA,NA,"39.1358","-0.4555","approximate","Carcaixent",NA,"Valencia","Comunitat Valenciana","Southern Europe","Europe","L100000824413","G100000827544",NA,NA,"https://www.gem.wiki/Campos_Salados_solar_farm"
"2024/04/05","Spain","Campos de Al-Andalus solar farm","1","Planta solar fotovoltaica Campos de Al-Andalus",NA,46.6,"unknown","PV","pre-construction",NA,NA,"Enel Green Power España",NA,"Endesa SA",NA,NA,"37.3723","-6.8806","approximate","Gibraleón",NA,"Huelva","Andalucía","Southern Europe","Europe","L100001005210","G100001006167",NA,NA,"https://www.gem.wiki/Campos_de_Al-Andalus_solar_farm"
"2024/04/05","Spain","Campos de Al-Andalus solar farm","2","Planta solar fotovoltaica Campos de Al-Andalus",NA,50,"MWac","PV","pre-construction",NA,NA,"Enel Green Power España",NA,"Endesa SA",NA,NA,"37.3723","-6.8806","approximate","Gibraleón",NA,"Huelva","Andalucía","Southern Europe","Europe","L100001005210","G100001006168",NA,NA,"https://www.gem.wiki/Campos_de_Al-Andalus_solar_farm"
"2024/02/13","Spain","Campos de Levante solar farm","1","Planta solar fotovoltaica Campos de Levante",NA,100,"unknown","PV","pre-construction",NA,NA,"Renantis UK",NA,"Renantis UK Ltd",NA,NA,"39.4726","-0.7178","approximate","Chiva",NA,NA,"Valencia","Southern Europe","Europe","L100000806340","G100000807278",NA,NA,"https://www.gem.wiki/Campos_de_Levante_solar_farm"
"2024/03/18","Spain","Campos de Zuloaga solar farm","--","Planta solar fotovoltaica Campos de Zuloag","Campos de Zuluaga solar farm",62.5,"MWac","PV","pre-construction",NA,NA,"Falck Renewables Power 2",NA,"Renantis SpA",NA,NA,"42.7828","-1.7346","approximate","Cizur",NA,"Navarra","Navarra","Southern Europe","Europe","L100000824411","G100000827542",NA,NA,"https://www.gem.wiki/Campos_de_Zuloaga_solar_farm"
"2024/04/05","Spain","Campos del Condado solar farm","4","Campos del Condado IV, Planta solar fotovoltaica Campos del Condado IV",NA,57.3,"MWac","PV","pre-construction",NA,NA,"Arena Power Solar 33 SLU",NA,"Arena Power Solar 33 SLU",NA,NA,"37.4178","-6.8010","approximate","Beas",NA,"Huelva","Andalucía","Southern Europe","Europe","L100000824412","G100000827543",NA,NA,"https://www.gem.wiki/Campos_del_Condado_solar_farm"
"2024/04/05","Spain","Campos del Condado solar farm","5","Campos del Condado V, Planta solar fotovoltaica Campos del Condado IV",NA,23.4,"MWp/dc","PV","pre-construction",NA,NA,NA,NA,"Arena Power Solar 34 SLU",NA,NA,"37.4178","-6.8010","approximate","Beas",NA,"Huelva","Andalucía","Southern Europe","Europe","L100000824412","G100001006165",NA,NA,"https://www.gem.wiki/Campos_del_Condado_solar_farm"
"2024/04/05","Spain","Campos del Condado solar farm","6","Campos del Condado VI, Planta solar fotovoltaica Campos del Condado IV",NA,61.2,"MWp/dc","PV","pre-construction",NA,NA,NA,NA,"Arena Power Solar 35 SLU",NA,NA,"37.4178","-6.8010","approximate","Beas",NA,"Huelva","Andalucía","Southern Europe","Europe","L100000824412","G100001006164",NA,NA,"https://www.gem.wiki/Campos_del_Condado_solar_farm"
"2024/02/23","Spain","Campos del Río solar farm","--","Planta solar fotovoltaica Campos del Río",NA,49.4,"MWac","PV","pre-construction",NA,NA,"Amber Solar Power Veinticuatro",NA,"TotalEnergies SE ; Soltec Energias Renovables SL",NA,NA,"38.0280","-1.3265","approximate","Campos del Río",NA,"Murcia","Murcia","Southern Europe","Europe","L100001003182","G100001003648",NA,NA,"https://www.gem.wiki/Campos_del_Río_solar_farm"
"2024/03/15","Spain","Campus Data Center CCGreen solar farm","--","Ecopolígono CCGreen",NA,520,"unknown","PV","announced",2030,NA,NA,NA,"Ingenostrum SL",NA,NA,"39.4697","-6.3791","approximate","Cáceres",NA,"Cáceres","Extremadura","Southern Europe","Europe","L100000824414","G100000827545",NA,NA,"https://www.gem.wiki/Campus_Data_Center_CCGreen_solar_farm"
"2024/04/02","Spain","Cancillos solar farm","--",NA,NA,82.6,"MWp/dc","PV","pre-construction",NA,NA,"EDP Renewables","Edpr Ανανεωσιμες Πηγες Ενεργειας Ελλας 2 Μονοπροσωπη Ανωνυμη Εταιρεια",NA,NA,NA,"41.3473","-0.7809","approximate",NA,NA,NA,"Aragón","Southern Europe","Europe","L100000824416","G100000827550",NA,NA,"https://www.gem.wiki/Cancillos_solar_farm"
"2024/04/15","Spain","Canes 1 solar farm","--",NA,NA,50,"MWp/dc","PV","pre-construction",NA,NA,NA,NA,"Grenergy",NA,NA,"40.2982","-2.9811","approximate","Almoguera",NA,"Guadalajara","Castilla-La Mancha","Southern Europe","Europe","L100001005462","G100001006501",NA,NA,"https://www.gem.wiki/Canes_1_solar_farm"
"2024/03/18","Spain","Canopus solar farm","--","Parque fotovoltaico Canopus",NA,49.5,"MWac","PV","pre-construction",NA,NA,"Energía Inagotable de Canopus",NA,"Forestalia SL",NA,NA,"41.5957","0.1979","approximate","Ballobar",NA,"Huesca","Aragón","Southern Europe","Europe","L100000824417","G100000827551",NA,NA,"https://www.gem.wiki/Canopus_solar_farm"
"2023/01/19","Spain","Canredondo solar farm","--",NA,NA,22,"MWp/dc","PV","operating",2022,NA,"Naturgy Energy Group",NA,"Naturgy Energy Group SA",NA,NA,"40.6345","-3.1744","approximate","Guadalajara",NA,"Guadalajara","Castile-La Mancha","Southern Europe","Europe","L100000824418","G100000827552",NA,NA,"https://www.gem.wiki/Canredondo_solar_farm"
"2024/04/03","Spain","Caoba (Spain) solar farm","--","Planta solar fotovoltaica Caoba Solar",NA,50,"MWp/dc","PV","pre-construction",NA,NA,"Caoba Solar",NA,"Amarenco",NA,NA,"41.7794","-5.9074","approximate","Pozuelo de Tábara",NA,"Zamora","Castilla y León","Southern Europe","Europe","L100001004663","G100001005473",NA,NA,"https://www.gem.wiki/Caoba_(Spain)_solar_farm"
"2024/02/12","Spain","Cap Blanc solar farm","--","Planta solar fotovoltaica Cap Blanc",NA,24.6,"MWac","PV","pre-construction",NA,NA,NA,NA,"Energía Inagotable de Paventia SL",NA,NA,"41.5938","1.1408","approximate","Verdú","Urgell","Lleida","Cataluña","Southern Europe","Europe","L100001000952","G100001001320",NA,NA,"https://www.gem.wiki/Cap_Blanc_solar_farm"
"2024/04/19","Spain","Caparacena 400 solar farm","--",NA,NA,217.6,"unknown","PV","announced",NA,NA,NA,NA,"Enel Green Power",NA,NA,"37.3923","-3.5205","approximate","Inalloz",NA,NA,"Granada","Southern Europe","Europe","L100001005588","G100001006688",NA,NA,"https://www.gem.wiki/Caparacena_400_solar_farm"
"2023/01/11","Spain","Capricornius solar farm","1",NA,"Solaria Cyl-Ma-I",25,"MWp/dc","PV","operating",2021,NA,"Solaria Energía y Medio Ambiente",NA,"Solaria Energía y Medio Ambiente SA",NA,NA,"41.9813","-4.4237","approximate","Magaz de Pisuerga",NA,"Palencia","Castilla y León","Southern Europe","Europe","L100000805971","G100000806875","WKSL: WKSL: 77651","PRETOR: RE-113356","https://www.gem.wiki/Capricornius_solar_farm"
"2024/03/27","Spain","Caravón solar farm","--","Parque solar fotovoltaico Caravón Solar",NA,70,"MWp/dc","PV","pre-construction",NA,NA,"Caravón Solar",NA,"Ignis Energía SL",NA,NA,"40.7647","-3.1757","approximate","Yunquera de Henares",NA,"Guadalajara","Castilla-La Mancha","Southern Europe","Europe","L100000824420","G100000827554",NA,NA,"https://www.gem.wiki/Caravón_solar_farm"
"2024/02/09","Spain","Carbeso solar farm","--","Planta solar fotovoltaica Carbeso Solar",NA,44.4,"MWac","PV","pre-construction",NA,NA,NA,NA,"Carbeso Solar SL",NA,NA,"41.6994","1.4250","approximate","Pujalt","Anoia","Barcelona","Cataluña","Southern Europe","Europe","L100001000850","G100001001207",NA,NA,"https://www.gem.wiki/Carbeso_solar_farm"
"2024/04/19","Spain","Carbo solar farm","--",NA,NA,81.4,"unknown","PV","pre-construction",NA,NA,NA,NA,"Enel Green Power",NA,NA,"37.5649","-4.2793","approximate",NA,NA,NA,"Andalucía","Southern Europe","Europe","L100001005617","G100001006733",NA,NA,"https://www.gem.wiki/Carbo_solar_farm"
"2024/03/26","Spain","Carina solar farm","10","Parque solar fotovoltaico Carina Solar",NA,49.4,"MWac","PV","pre-construction",NA,NA,NA,NA,"Solaria Promoción y Desarrollo Fotovoltaico SL",NA,NA,"40.0476","-3.8445","approximate","Pantoja",NA,"Toledo","Castilla-La Mancha","Southern Europe","Europe","L100000824421","G100000827557",NA,NA,"https://www.gem.wiki/Carina_solar_farm"
"2024/03/26","Spain","Carina solar farm","8","Parque solar fotovoltaico Carina Solar",NA,49.4,"MWac","PV","pre-construction",NA,NA,NA,NA,"Solaria Promoción y Desarrollo Fotovoltaico SL",NA,NA,"40.1775","-4.0326","approximate","Casarrubios del Monte",NA,"Toledo","Castilla-La Mancha","Southern Europe","Europe","L100000824421","G100000827555",NA,NA,"https://www.gem.wiki/Carina_solar_farm"
"2024/03/26","Spain","Carina solar farm","9","Parque solar fotovoltaico Carina Solar",NA,49.4,"MWac","PV","pre-construction",NA,NA,NA,NA,"Solaria Promoción y Desarrollo Fotovoltaico SL",NA,NA,"40.0385","-3.8384","approximate","Pantoja",NA,"Toledo","Castilla-La Mancha","Southern Europe","Europe","L100000824421","G100000827556",NA,NA,"https://www.gem.wiki/Carina_solar_farm"
"2024/03/29","Spain","Carlit solar farm","--","Planta solar fotovoltaica Carlit Solar",NA,95.9,"MWac","PV","pre-construction",NA,NA,"Carlit Solar Spain",NA,"Carlit Solar Spain SL",NA,NA,"38.4433","-0.9258","approximate","Monòver",NA,"Alicante","Comunitat Valenciana","Southern Europe","Europe","L100000824422","G100000827558",NA,NA,"https://www.gem.wiki/Carlit_solar_farm"
"2024/03/28","Spain","Carmen solar farm","--",NA,NA,60,"MWp/dc","PV","pre-construction",NA,NA,"Green Tie Desarrollo SLU",NA,NA,NA,NA,"40.4325","-3.6799","approximate",NA,NA,"Madrid","Comunidad de Madrid","Southern Europe","Europe","L100000824423","G100000827559",NA,NA,"https://www.gem.wiki/Carmen_solar_farm"
"2024/04/02","Spain","Carmona solar farm","--",NA,NA,400,"MWp/dc","PV","pre-construction",NA,NA,"Bruc Iberia Energy Investment Partners",NA,"Bruc Iberia Energy Investment Partners",NA,NA,"37.3923","-5.9623","approximate",NA,"Seville",NA,NA,"Southern Europe","Europe","L100000824424","G100000827560",NA,NA,"https://www.gem.wiki/Carmona_solar_farm"
"2025/01/06","Spain","Carmonita Ministerio solar farm","1","Planta fotovoltaica Carmonita Ministerio",NA,159,"MWp/dc","PV","construction",NA,NA,"Fotowatio Renewable Ventures (FRV)",NA,"Fotowatio Renewable Ventures (FRV) BV",NA,NA,"39.1365","-6.3406","approximate","Carmonita",NA,"Badajoz","Extremadura","Southern Europe","Europe","L100000824425","G100000827561",NA,NA,"https://www.gem.wiki/Carmonita_Ministerio_solar_farm"
"2025/01/06","Spain","Carmonita Ministerio solar farm","2","Planta fotovoltaica Carmonita Ministerio",NA,159,"MWp/dc","PV","construction",NA,NA,"Fotowatio Renewable Ventures (FRV)",NA,"Fotowatio Renewable Ventures (FRV) BV",NA,NA,"39.1365","-6.3406","approximate","Carmonita",NA,"Badajoz","Extremadura","Southern Europe","Europe","L100000824425","G100001006156",NA,NA,"https://www.gem.wiki/Carmonita_Ministerio_solar_farm"
"2025/01/06","Spain","Carmonita Ministerio solar farm","3","Planta fotovoltaica Carmonita Ministerio",NA,159,"MWp/dc","PV","construction",NA,NA,"Fotowatio Renewable Ventures (FRV)",NA,"Fotowatio Renewable Ventures (FRV) BV",NA,NA,"39.1365","-6.3406","approximate","Carmonita",NA,"Badajoz","Extremadura","Southern Europe","Europe","L100000824425","G100001006157",NA,NA,"https://www.gem.wiki/Carmonita_Ministerio_solar_farm"
"2024/03/07","Spain","Carmonita Norte solar farm","1","Planta fotovoltaica Carmonita Norte",NA,46,"MWp/dc","PV","operating",2024,NA,"Fotowatio Renewable Ventures (FRV)",NA,"Fotowatio Renewable Ventures (FRV) BV",NA,NA,"39.1439","-6.2788","approximate","Carmonita",NA,"Badajoz","Extremadura","Southern Europe","Europe","L100000824426","G100000827562",NA,NA,"https://www.gem.wiki/Carmonita_Norte_solar_farm"
